 [
  {
    "id": "1",
    
    "name": "富里ダム",
    "lat": "43.8552777",
    "lng": "143.7530555",
    "address": "北海道北見市",
    "type":"ダム"
  },
  {
    "id": "2",
    
    "name": "聖台ダム",
    "lat": "43.6119444",
    "lng": "142.5238888",
    "address": "北海道美瑛町",
    "type":"ダム"
  },
  {
    "id": "3",
    
    "name": "金山ダム",
    "lat": "43.1294444",
    "lng": "142.4425",
    "address": "北海道南富良野町",
    "type":"ダム"
  },
  {
    "id": "4",
    
    "name": "豊平峡ダム",
    "lat": "42.9155555",
    "lng": "141.1536111",
    "address": "北海道札幌市",
    "type":"ダム"
  },
  {
    "id": "5",
    
    "name": "笹流ダム",
    "lat": "41.835",
    "lng": "140.7730555",
    "address": "北海道函館市",
    "type":"ダム"
  },
  {
    "id": "6",
    
    "name": "川内ダム",
    "lat": "41.2744444",
    "lng": "140.8941666",
    "address": "青森県むつ市",
    "type":"ダム"
  },
  {
    "id": "7",
    
    "name": "岩洞湖ダム",
    "lat": "39.8269444",
    "lng": "141.3730555",
    "address": "岩手県盛岡市",
    "type":"ダム"
  },
  {
    "id": "8",
    
    "name": "御所ダム",
    "lat": "39.6933333",
    "lng": "141.0291666",
    "address": "岩手県盛岡市",
    "type":"ダム"
  },
  {
    "id": "9",
    
    "name": "田瀬ダム",
    "lat": "39.3430555",
    "lng": "141.3186111",
    "address": "岩手県花巻市",
    "type":"ダム"
  },
  {
    "id": "10",
    
    "name": "湯田ダム",
    "lat": "39.3013888",
    "lng": "140.885",
    "address": "岩手県西和賀町",
    "type":"ダム"
  },
  {
    "id": "11",
    
    "name": "南川ダム",
    "lat": "38.4344444",
    "lng": "140.8213888",
    "address": "宮城県大和町",
    "type":"ダム"
  },
  {
    "id": "12",
    
    "name": "宮床ダム",
    "lat": "38.3869444",
    "lng": "140.8222222",
    "address": "宮城県大和町",
    "type":"ダム"
  },
  {
    "id": "13",
    
    "name": "釜房ダム",
    "lat": "38.2019444",
    "lng": "140.6972222",
    "address": "宮城県川崎町",
    "type":"ダム"
  },
  {
    "id": "14",
    
    "name": "七ヶ宿ダム",
    "lat": "37.9594444",
    "lng": "140.5127777",
    "address": "宮城県七ケ宿町",
    "type":"ダム"
  },
  {
    "id": "15",
    
    "name": "玉川ダム",
    "lat": "39.8308333",
    "lng": "140.6402777",
    "address": "秋田県仙北市",
    "type":"ダム"
  },
  {
    "id": "16",
    
    "name": "寒河江ダム",
    "lat": "38.4552777",
    "lng": "140.0386111",
    "address": "山形県西川町",
    "type":"ダム"
  },
  {
    "id": "17",
    
    "name": "羽鳥ダム",
    "lat": "37.2716666",
    "lng": "140.0758333",
    "address": "福島県天栄村",
    "type":"ダム"
  },
  {
    "id": "18",
    
    "name": "田子倉ダム",
    "lat": "37.3105555",
    "lng": "139.2869444",
    "address": "福島県只見町",
    "type":"ダム"
  },
  {
    "id": "19",
    
    "name": "奥只見ダム",
    "lat": "37.1536111",
    "lng": "139.25",
    "address": "福島県檜枝岐村・新潟県魚沼市",
    "type":"ダム"
  },
  {
    "id": "20",
    
    "name": "矢木沢ダム",
    "lat": "36.9113888",
    "lng": "139.0563888",
    "address": "群馬県みなかみ町",
    "type":"ダム"
  },
  {
    "id": "21",
    
    "name": "奈良俣ダム",
    "lat": "36.8822222",
    "lng": "139.0791666",
    "address": "群馬県みなかみ町",
    "type":"ダム"
  },
  {
    "id": "22",
    
    "name": "野反ダム",
    "lat": "36.7186111",
    "lng": "138.6413888",
    "address": "群馬県中之条町",
    "type":"ダム"
  },
  {
    "id": "23",
    
    "name": "相俣ダム",
    "lat": "36.7125",
    "lng": "138.8925",
    "address": "群馬県みなかみ町",
    "type":"ダム"
  },
  {
    "id": "24",
    
    "name": "草木ダム",
    "lat": "36.5422222",
    "lng": "139.3722222",
    "address": "群馬県みどり市",
    "type":"ダム"
  },
  {
    "id": "25",
    
    "name": "下久保ダム",
    "lat": "36.1325",
    "lng": "139.0225",
    "address": "群馬県藤岡市・神流町・埼玉県秩父市・神川町",
    "type":"ダム"
  },
  {
    "id": "26",
    
    "name": "山口ダム",
    "lat": "35.7777777",
    "lng": "139.4155555",
    "address": "埼玉県所沢市・入間市",
    "type":"ダム"
  },
  {
    "id": "27",
    
    "name": "村山ダム",
    "lat": "35.7638888",
    "lng": "139.4402777",
    "address": "東京都東大和市",
    "type":"ダム"
  },
  {
    "id": "28",
    
    "name": "小河内ダム",
    "lat": "35.7894444",
    "lng": "139.0505555",
    "address": "東京都奥多摩町",
    "type":"ダム"
  },
  {
    "id": "29",
    
    "name": "宮ヶ瀬ダム",
    "lat": "35.5419444",
    "lng": "139.2488888",
    "address": "神奈川県相模原市・愛川町・清川村",
    "type":"ダム"
  },
  {
    "id": "30",
    
    "name": "三保ダム",
    "lat": "35.4102777",
    "lng": "139.0416666",
    "address": "神奈川県山北町",
    "type":"ダム"
  },
  {
    "id": "31",
    
    "name": "黒部ダム",
    "lat": "36.5663888",
    "lng": "137.6619444",
    "address": "富山県立山町",
    "type":"ダム"
  },
  {
    "id": "32",
    
    "name": "有峰ダム",
    "lat": "36.4894444",
    "lng": "137.4486111",
    "address": "富山県富山市",
    "type":"ダム"
  },
  {
    "id": "33",
    
    "name": "高瀬ダム",
    "lat": "36.4747222",
    "lng": "137.6908333",
    "address": "長野県大町市",
    "type":"ダム"
  },
  {
    "id": "34",
    
    "name": "味噌川ダム",
    "lat": "35.9766666",
    "lng": "137.7702777",
    "address": "長野県木祖村",
    "type":"ダム"
  },
  {
    "id": "35",
    
    "name": "高遠ダム",
    "lat": "35.8294444",
    "lng": "138.0627777",
    "address": "長野県伊那市",
    "type":"ダム"
  },
  {
    "id": "36",
    
    "name": "美和ダム",
    "lat": "35.8136111",
    "lng": "138.0791666",
    "address": "長野県伊那市",
    "type":"ダム"
  },
  {
    "id": "37",
    
    "name": "大井ダム",
    "lat": "35.4811111",
    "lng": "137.3961111",
    "address": "岐阜県恵那市・中津川市",
    "type":"ダム"
  },
  {
    "id": "38",
    
    "name": "阿木川ダム",
    "lat": "35.4247222",
    "lng": "137.43",
    "address": "岐阜県恵那市",
    "type":"ダム"
  },
  {
    "id": "39",
    
    "name": "佐久間ダム",
    "lat": "35.0994444",
    "lng": "137.7941666",
    "address": "静岡県浜松市・愛知県豊根村",
    "type":"ダム"
  },
  {
    "id": "40",
    
    "name": "羽布ダム",
    "lat": "35.035",
    "lng": "137.3977777",
    "address": "愛知県豊田市",
    "type":"ダム"
  },
  {
    "id": "41",
    
    "name": "永源寺ダム",
    "lat": "35.0761111",
    "lng": "136.335",
    "address": "滋賀県東近江市",
    "type":"ダム"
  },
  {
    "id": "42",
    
    "name": "大野ダム",
    "lat": "35.2622222",
    "lng": "135.4605555",
    "address": "京都府南丹市",
    "type":"ダム"
  },
  {
    "id": "43",
    
    "name": "日吉ダム",
    "lat": "35.1477777",
    "lng": "135.5175",
    "address": "京都府南丹市",
    "type":"ダム"
  },
  {
    "id": "44",
    
    "name": "一庫ダム",
    "lat": "34.905",
    "lng": "135.4116666",
    "address": "兵庫県川西市",
    "type":"ダム"
  },
  {
    "id": "45",
    
    "name": "布引五本松ダム",
    "lat": "34.7111111",
    "lng": "135.19",
    "address": "兵庫県神戸市",
    "type":"ダム"
  },
  {
    "id": "46",
    
    "name": "池原ダム",
    "lat": "34.0466666",
    "lng": "135.9708333",
    "address": "奈良県下北山村",
    "type":"ダム"
  },
  {
    "id": "47",
    
    "name": "椿山ダム",
    "lat": "33.9588888",
    "lng": "135.3911111",
    "address": "和歌山県日高川町",
    "type":"ダム"
  },
  {
    "id": "48",
    
    "name": "帝釈川ダム",
    "lat": "34.8277777",
    "lng": "133.2347222",
    "address": "広島県神石高原町・広島県庄原市",
    "type":"ダム"
  },
  {
    "id": "49",
    
    "name": "土師ダム",
    "lat": "34.6436111",
    "lng": "132.6208333",
    "address": "広島県安芸高田市",
    "type":"ダム"
  },
  {
    "id": "50",
    
    "name": "温井ダム",
    "lat": "34.6341666",
    "lng": "132.2994444",
    "address": "広島県安芸太田町",
    "type":"ダム"
  },
  {
    "id": "51",
    
    "name": "本庄ダム",
    "lat": "34.3152777",
    "lng": "132.5655555",
    "address": "広島県呉市",
    "type":"ダム"
  },
  {
    "id": "52",
    
    "name": "弥栄ダム",
    "lat": "34.2333333",
    "lng": "132.1625",
    "address": "広島県大竹市・山口県岩国市",
    "type":"ダム"
  },
  {
    "id": "53",
    
    "name": "厚東川ダム",
    "lat": "34.0716666",
    "lng": "131.2830555",
    "address": "山口県宇部市",
    "type":"ダム"
  },
  {
    "id": "54",
    
    "name": "満濃池ダム",
    "lat": "34.1647222",
    "lng": "133.8658333",
    "address": "香川県まんのう町",
    "type":"ダム"
  },
  {
    "id": "55",
    
    "name": "野村ダム",
    "lat": "33.3588888",
    "lng": "132.6288888",
    "address": "愛媛県西予市",
    "type":"ダム"
  },
  {
    "id": "56",
    
    "name": "早明浦ダム",
    "lat": "33.7569444",
    "lng": "133.55",
    "address": "高知県本山町・土佐町",
    "type":"ダム"
  },
  {
    "id": "57",
    
    "name": "江川ダム",
    "lat": "33.4597222",
    "lng": "130.7336111",
    "address": "福岡県朝倉市",
    "type":"ダム"
  },
  {
    "id": "58",
    
    "name": "寺内ダム",
    "lat": "33.4291666",
    "lng": "130.7233333",
    "address": "福岡県朝倉市",
    "type":"ダム"
  },
  {
    "id": "59",
    
    "name": "鷹島ダム",
    "lat": "33.4430555",
    "lng": "129.7691666",
    "address": "長崎県松浦市",
    "type":"ダム"
  },
  {
    "id": "60",
    
    "name": "北川ダム",
    "lat": "32.7905555",
    "lng": "131.6077777",
    "address": "大分県佐伯市",
    "type":"ダム"
  },
  {
    "id": "61",
    
    "name": "上椎葉ダム",
    "lat": "32.46",
    "lng": "131.1491666",
    "address": "宮崎県椎葉村",
    "type":"ダム"
  },
  {
    "id": "62",
    
    "name": "鶴田ダム",
    "lat": "31.9886111",
    "lng": "130.4938888",
    "address": "鹿児島県さつま町・伊佐市",
    "type":"ダム"
  },
  {
    "id": "63",
    
    "name": "福地ダム",
    "lat": "26.6475",
    "lng": "128.1744444",
    "address": "沖縄県東村",
    "type":"ダム"
  },
  {
    "id": "64",
    
    "name": "漢那ダム",
    "lat": "26.4822222",
    "lng": "127.9494444",
    "address": "沖縄県宜野座村",
    "type":"ダム"
  },
  {
    "id": "65",
    
    "name": "倉敷ダム",
    "lat": "26.3886111",
    "lng": "127.805",
    "address": "沖縄県沖縄市",
    "type":"ダム"
  }
]
