[
  {
    "id": "1",
    "name": "元和台海浜公園",
    "lat": "42.0083333",
    "lng": "140.1041666",
    "address": "北海道乙部町",
    "type":"海水浴"
    
  },
  {
    "id": "2",
    "name": "八戸市白浜海水浴場",
    "lat": "40.5194444",
    "lng": "141.59",
    "address": "青森県八戸市",
    "type":"海水浴"
    
  },
  {
    "id": "3",
    "name": "真崎海岸海水浴場",
    "lat": "39.7563888",
    "lng": "141.9886111",
    "address": "岩手県宮古市",
    "type":"海水浴"
    
  },
  {
    "id": "4",
    "name": "女遊戸海水浴場",
    "lat": "39.6902777",
    "lng": "141.9666666",
    "address": "岩手県宮古市",
    "type":"海水浴"
    
  },
  {
    "id": "5",
    "name": "浄土ヶ浜海水浴場",
    "lat": "39.6502777",
    "lng": "141.98",
    "address": "岩手県宮古市",
    "type":"海水浴"
    
  },
  {
    "id": "6",
    "name": "小田の浜海水浴場",
    "lat": "38.8522222",
    "lng": "141.6219444",
    "address": "宮城県気仙沼市",
    "type":"海水浴"
    
  },
  {
    "id": "7",
    "name": "お伊勢浜海水浴場",
    "lat": "38.8241666",
    "lng": "141.5811111",
    "address": "宮城県気仙沼市",
    "type":"海水浴"
    
  },
  {
    "id": "8",
    "name": "大谷海水浴場",
    "lat": "38.8130555",
    "lng": "141.5627777",
    "address": "宮城県気仙沼市",
    "type":"海水浴"
    
  },
  {
    "id": "9",
    "name": "小泉海水浴場",
    "lat": "38.7722222",
    "lng": "141.5161111",
    "address": "宮城県気仙沼市",
    "type":"海水浴"
    
  },
  {
    "id": "10",
    "name": "釜谷浜海水浴場",
    "lat": "40.0958333",
    "lng": "139.9583333",
    "address": "秋田県三種町",
    "type":"海水浴"
    
  },
  {
    "id": "11",
    "name": "宮沢海水浴場",
    "lat": "40.0352777",
    "lng": "139.9191666",
    "address": "秋田県男鹿市",
    "type":"海水浴"
    
  },
  {
    "id": "12",
    "name": "象潟海水浴場",
    "lat": "39.2063888",
    "lng": "139.8947222",
    "address": "秋田県にかほ市",
    "type":"海水浴"
    
  },
  {
    "id": "13",
    "name": "西浜海水浴場",
    "lat": "39.0580555",
    "lng": "139.8694444",
    "address": "山形県遊佐町",
    "type":"海水浴"
    
  },
  {
    "id": "14",
    "name": "由良海水浴場",
    "lat": "38.7227777",
    "lng": "139.6888888",
    "address": "山形県鶴岡市",
    "type":"海水浴"
    
  },
  {
    "id": "15",
    "name": "マリンパークねずがせき",
    "lat": "38.5566666",
    "lng": "139.5438888",
    "address": "山形県鶴岡市",
    "type":"海水浴"
    
  },
  {
    "id": "16",
    "name": "双葉海水浴場",
    "lat": "37.455",
    "lng": "141.0375",
    "address": "福島県双葉町",
    "type":"海水浴"
    
  },
  {
    "id": "17",
    "name": "伊師浜海水浴場",
    "lat": "36.6683333",
    "lng": "140.7141666",
    "address": "茨城県日立市",
    "type":"海水浴"
    
  },
  {
    "id": "18",
    "name": "河原子海水浴場",
    "lat": "36.5483333",
    "lng": "140.6436111",
    "address": "茨城県日立市",
    "type":"海水浴"
    
  },
  {
    "id": "19",
    "name": "水木海水浴場",
    "lat": "36.5277777",
    "lng": "140.6355555",
    "address": "茨城県日立市",
    "type":"海水浴"
    
  },
  {
    "id": "20",
    "name": "大洗サンビーチ",
    "lat": "36.3016666",
    "lng": "140.5672222",
    "address": "茨城県大洗町",
    "type":"海水浴"
    
  },
  {
    "id": "21",
    "name": "波崎海水浴場",
    "lat": "35.7530555",
    "lng": "140.8322222",
    "address": "茨城県神栖市",
    "type":"海水浴"
    
  },
  {
    "id": "22",
    "name": "守谷海水浴場",
    "lat": "35.1380555",
    "lng": "140.2591666",
    "address": "千葉県勝浦市",
    "type":"海水浴"
    
  },
  {
    "id": "23",
    "name": "和田浦海水浴場",
    "lat": "35.0447222",
    "lng": "140.0255555",
    "address": "千葉県南房総市",
    "type":"海水浴"
    
  },
  {
    "id": "24",
    "name": "瀬波温泉海水浴場",
    "lat": "38.2258333",
    "lng": "139.4444444",
    "address": "新潟県村上市",
    "type":"海水浴"
    
  },
  {
    "id": "25",
    "name": "二ツ亀海水浴場",
    "lat": "38.3308333",
    "lng": "138.4855555",
    "address": "新潟県佐渡市",
    "type":"海水浴"
    
  },
  {
    "id": "26",
    "name": "番神・西番神海水浴場",
    "lat": "37.3630555",
    "lng": "138.5255555",
    "address": "新潟県柏崎市",
    "type":"海水浴"
    
  },
  {
    "id": "27",
    "name": "宮崎・境海岸海水浴場",
    "lat": "36.9747222",
    "lng": "137.5986111",
    "address": "富山県朝日町",
    "type":"海水浴"
    
  },
  {
    "id": "28",
    "name": "島尾海水浴場",
    "lat": "36.8305555",
    "lng": "137.0144444",
    "address": "富山県氷見市",
    "type":"海水浴"
    
  },
  {
    "id": "29",
    "name": "袖ヶ浜海水浴場",
    "lat": "37.4022222",
    "lng": "136.8952777",
    "address": "石川県輪島市",
    "type":"海水浴"
    
  },
  {
    "id": "30",
    "name": "内灘海水浴場",
    "lat": "36.6388888",
    "lng": "136.6208333",
    "address": "石川県内灘町",
    "type":"海水浴"
    
  },
  {
    "id": "31",
    "name": "若狭和田海水浴場",
    "lat": "35.4930555",
    "lng": "135.575",
    "address": "福井県高浜町",
    "type":"海水浴"
    
  },
  {
    "id": "32",
    "name": "白浜中央海水浴場",
    "lat": "34.6908333",
    "lng": "138.9733333",
    "address": "静岡県下田市",
    "type":"海水浴"
    
  },
  {
    "id": "33",
    "name": "外浦海水浴場",
    "lat": "34.6752777",
    "lng": "138.9725",
    "address": "静岡県下田市",
    "type":"海水浴"
    
  },
  {
    "id": "34",
    "name": "弓ヶ浜海水浴場",
    "lat": "34.6338888",
    "lng": "138.8897222",
    "address": "静岡県南伊豆町",
    "type":"海水浴"
    
  },
  {
    "id": "35",
    "name": "大瀬海水浴場",
    "lat": "35.0247222",
    "lng": "138.7861111",
    "address": "静岡県沼津市",
    "type":"海水浴"
    
  },
  {
    "id": "36",
    "name": "御前崎海水浴場",
    "lat": "34.6061111",
    "lng": "138.2291666",
    "address": "静岡県御前崎市",
    "type":"海水浴"
    
  },
  {
    "id": "37",
    "name": "御座白浜海水浴場",
    "lat": "34.2736111",
    "lng": "136.7619444",
    "address": "三重県志摩市",
    "type":"海水浴"
    
  },
  {
    "id": "38",
    "name": "新鹿海水浴場",
    "lat": "33.93",
    "lng": "136.1477777",
    "address": "三重県熊野市",
    "type":"海水浴"
    
  },
  {
    "id": "39",
    "name": "マキノサニービーチ",
    "lat": "35.4552777",
    "lng": "136.0611111",
    "address": "滋賀県高島市",
    "type":"海水浴"
    
  },
  {
    "id": "40",
    "name": "竹野浜海水浴場",
    "lat": "35.6611111",
    "lng": "134.7641666",
    "address": "兵庫県豊岡市",
    "type":"海水浴"
    
  },
  {
    "id": "41",
    "name": "浦県民サンビーチ",
    "lat": "34.5566666",
    "lng": "134.9408333",
    "address": "兵庫県淡路市",
    "type":"海水浴"
    
  },
  {
    "id": "42",
    "name": "大浜海水浴場",
    "lat": "34.3419444",
    "lng": "134.9030555",
    "address": "兵庫県洲本市",
    "type":"海水浴"
    
  },
  {
    "id": "43",
    "name": "慶野松原海水浴場",
    "lat": "34.3419444",
    "lng": "134.7383333",
    "address": "兵庫県南あわじ市",
    "type":"海水浴"
    
  },
  {
    "id": "44",
    "name": "那智海水浴場",
    "lat": "33.6419444",
    "lng": "135.9363888",
    "address": "和歌山県那智勝浦町",
    "type":"海水浴"
    
  },
  {
    "id": "45",
    "name": "橋杭海水浴場",
    "lat": "33.4852777",
    "lng": "135.7913888",
    "address": "和歌山県串本町",
    "type":"海水浴"
    
  },
  {
    "id": "46",
    "name": "白良浜海水浴場",
    "lat": "33.6825",
    "lng": "135.3441666",
    "address": "和歌山県白浜町",
    "type":"海水浴"
    
  },
  {
    "id": "47",
    "name": "片男波海水浴場",
    "lat": "34.1791666",
    "lng": "135.1741666",
    "address": "和歌山県和歌山市",
    "type":"海水浴"
    
  },
  {
    "id": "48",
    "name": "浪早ビーチ",
    "lat": "34.1836111",
    "lng": "135.1494444",
    "address": "和歌山県和歌山市",
    "type":"海水浴"
    
  },
  {
    "id": "49",
    "name": "砂丘海水浴場",
    "lat": "35.5511111",
    "lng": "134.2461111",
    "address": "鳥取県鳥取市",
    "type":"海水浴"
    
  },
  {
    "id": "50",
    "name": "白兎海水浴場",
    "lat": "35.5261111",
    "lng": "134.1166666",
    "address": "鳥取県鳥取市",
    "type":"海水浴"
    
  },
  {
    "id": "51",
    "name": "石脇海水浴場",
    "lat": "35.5172222",
    "lng": "133.9538888",
    "address": "鳥取県湯梨浜町",
    "type":"海水浴"
    
  },
  {
    "id": "52",
    "name": "島根県立石見海浜公園",
    "lat": "34.9516666",
    "lng": "132.12",
    "address": "島根県浜田市",
    "type":"海水浴"
    
  },
  {
    "id": "53",
    "name": "渋川海水浴場",
    "lat": "34.4547222",
    "lng": "133.9036111",
    "address": "岡山県玉野市",
    "type":"海水浴"
    
  },
  {
    "id": "54",
    "name": "県民の浜海水浴場",
    "lat": "34.1641666",
    "lng": "132.7438888",
    "address": "広島県呉市",
    "type":"海水浴"
    
  },
  {
    "id": "55",
    "name": "片添ヶ浜海水浴場",
    "lat": "33.8983333",
    "lng": "132.3625",
    "address": "山口県周防大島町",
    "type":"海水浴"
    
  },
  {
    "id": "56",
    "name": "室積海水浴場",
    "lat": "33.9411111",
    "lng": "131.9652777",
    "address": "山口県光市",
    "type":"海水浴"
    
  },
  {
    "id": "57",
    "name": "虹ヶ浜海水浴場",
    "lat": "33.9691666",
    "lng": "131.9147222",
    "address": "山口県光市",
    "type":"海水浴"
    
  },
  {
    "id": "58",
    "name": "土井ヶ浜海水浴場",
    "lat": "34.2986111",
    "lng": "130.885",
    "address": "山口県下関市",
    "type":"海水浴"
    
  },
  {
    "id": "59",
    "name": "菊ヶ浜海水浴場",
    "lat": "34.4169444",
    "lng": "131.3897222",
    "address": "山口県萩市",
    "type":"海水浴"
    
  },
  {
    "id": "60",
    "name": "田井の浜海水浴場",
    "lat": "33.7713888",
    "lng": "134.5813888",
    "address": "徳島県美波町",
    "type":"海水浴"
    
  },
  {
    "id": "61",
    "name": "大砂海水浴場",
    "lat": "33.6397222",
    "lng": "134.3791666",
    "address": "徳島県海陽町",
    "type":"海水浴"
    
  },
  {
    "id": "62",
    "name": "女木島海水浴場",
    "lat": "34.3813888",
    "lng": "134.0425",
    "address": "香川県高松市",
    "type":"海水浴"
    
  },
  {
    "id": "63",
    "name": "沙弥島海水浴場",
    "lat": "34.3477777",
    "lng": "133.8219444",
    "address": "香川県坂出市",
    "type":"海水浴"
    
  },
  {
    "id": "64",
    "name": "本島泊海水浴場",
    "lat": "34.3808333",
    "lng": "133.78",
    "address": "香川県丸亀市",
    "type":"海水浴"
    
  },
  {
    "id": "65",
    "name": "松原海水浴場",
    "lat": "34.2508333",
    "lng": "133.2111111",
    "address": "愛媛県上島町",
    "type":"海水浴"
    
  },
  {
    "id": "66",
    "name": "ヤ・シィパーク海水浴場",
    "lat": "33.5338888",
    "lng": "133.7516666",
    "address": "高知県香南市",
    "type":"海水浴"
    
  },
  {
    "id": "67",
    "name": "興津海水浴場",
    "lat": "33.1669444",
    "lng": "133.2005555",
    "address": "高知県四万十町",
    "type":"海水浴"
    
  },
  {
    "id": "68",
    "name": "波津海水浴場",
    "lat": "33.8791666",
    "lng": "130.5736111",
    "address": "福岡県岡垣町",
    "type":"海水浴"
    
  },
  {
    "id": "69",
    "name": "芥屋海水浴場",
    "lat": "33.5858333",
    "lng": "130.1086111",
    "address": "福岡県糸島市",
    "type":"海水浴"
    
  },
  {
    "id": "70",
    "name": "辰ノ島海水浴場",
    "lat": "33.8666666",
    "lng": "129.6758333",
    "address": "長崎県壱岐市",
    "type":"海水浴"
    
  },
  {
    "id": "71",
    "name": "筒城浜海水浴場",
    "lat": "33.7561111",
    "lng": "129.7897222",
    "address": "長崎県壱岐市",
    "type":"海水浴"
    
  },
  {
    "id": "72",
    "name": "根獅子海水浴場",
    "lat": "33.2897222",
    "lng": "129.4447222",
    "address": "長崎県平戸市",
    "type":"海水浴"
    
  },
  {
    "id": "73",
    "name": "白浜海水浴場",
    "lat": "33.1238888",
    "lng": "129.6608333",
    "address": "長崎県佐世保市",
    "type":"海水浴"
    
  },
  {
    "id": "74",
    "name": "高浜海水浴場",
    "lat": "32.6061111",
    "lng": "129.7822222",
    "address": "長崎県長崎市",
    "type":"海水浴"
    
  },
  {
    "id": "75",
    "name": "白浜海水浴場",
    "lat": "32.6088888",
    "lng": "130.1747222",
    "address": "長崎県南島原市",
    "type":"海水浴"
    
  },
  {
    "id": "76",
    "name": "大浜海水浴場",
    "lat": "33.2766666",
    "lng": "129.1408333",
    "address": "長崎県佐世保市",
    "type":"海水浴"
    
  },
  {
    "id": "77",
    "name": "蛤浜海水浴場",
    "lat": "32.9805555",
    "lng": "129.0997222",
    "address": "長崎県新上五島町",
    "type":"海水浴"
    
  },
  {
    "id": "78",
    "name": "高浜海水浴場",
    "lat": "32.7088888",
    "lng": "128.6608333",
    "address": "長崎県五島市",
    "type":"海水浴"
    
  },
  {
    "id": "79",
    "name": "四郎ヶ浜ビーチ",
    "lat": "32.5077777",
    "lng": "130.3080555",
    "address": "熊本県天草市",
    "type":"海水浴"
    
  },
  {
    "id": "80",
    "name": "富岡海水浴場",
    "lat": "32.5213888",
    "lng": "130.0305555",
    "address": "熊本県苓北町",
    "type":"海水浴"
    
  },
  {
    "id": "81",
    "name": "白鶴浜海水浴場",
    "lat": "32.3777777",
    "lng": "129.9936111",
    "address": "熊本県天草市",
    "type":"海水浴"
    
  },
  {
    "id": "82",
    "name": "奈多・狩宿海水浴場",
    "lat": "33.44",
    "lng": "131.7116666",
    "address": "大分県杵築市",
    "type":"海水浴"
    
  },
  {
    "id": "83",
    "name": "黒島海水浴場",
    "lat": "33.1769444",
    "lng": "131.8369444",
    "address": "大分県臼杵市",
    "type":"海水浴"
    
  },
  {
    "id": "84",
    "name": "瀬会海水浴場",
    "lat": "33.0513888",
    "lng": "131.9388888",
    "address": "大分県佐伯市",
    "type":"海水浴"
    
  },
  {
    "id": "85",
    "name": "下阿蘇ビーチ",
    "lat": "32.6841666",
    "lng": "131.8019444",
    "address": "宮崎県延岡市",
    "type":"海水浴"
    
  },
  {
    "id": "86",
    "name": "須美江海水浴場",
    "lat": "32.6597222",
    "lng": "131.7655555",
    "address": "宮崎県延岡市",
    "type":"海水浴"
    
  },
  {
    "id": "87",
    "name": "伊勢ヶ浜海水浴場",
    "lat": "32.4133333",
    "lng": "131.6513888",
    "address": "宮崎県日向市",
    "type":"海水浴"
    
  },
  {
    "id": "88",
    "name": "高鍋海水浴場",
    "lat": "32.1186111",
    "lng": "131.5352777",
    "address": "宮崎県高鍋町",
    "type":"海水浴"
    
  },
  {
    "id": "89",
    "name": "青島海水浴場",
    "lat": "31.8105555",
    "lng": "131.4586111",
    "address": "宮崎県宮崎市",
    "type":"海水浴"
    
  },
  {
    "id": "90",
    "name": "富土海水浴場",
    "lat": "31.6983333",
    "lng": "131.4558333",
    "address": "宮崎県日南市",
    "type":"海水浴"
    
  },
  {
    "id": "91",
    "name": "大堂津海水浴場",
    "lat": "31.5530555",
    "lng": "131.3808333",
    "address": "宮崎県日南市",
    "type":"海水浴"
    
  },
  {
    "id": "92",
    "name": "脇本海水浴場",
    "lat": "32.0647222",
    "lng": "130.2063888",
    "address": "鹿児島県阿久根市",
    "type":"海水浴"
    
  },
  {
    "id": "93",
    "name": "阿久根大島海水浴場",
    "lat": "32.0261111",
    "lng": "130.1666666",
    "address": "鹿児島県阿久根市",
    "type":"海水浴"
    
  },
  {
    "id": "94",
    "name": "大浜海浜公園",
    "lat": "28.4052777",
    "lng": "129.455",
    "address": "鹿児島県奄美市",
    "type":"海水浴"
    
  },
  {
    "id": "95",
    "name": "国営沖縄記念公園　エメラルドビーチ",
    "lat": "26.6988888",
    "lng": "127.8772222",
    "address": "沖縄県本部町",
    "type":"海水浴"
    
  },
  {
    "id": "96",
    "name": "万座ビーチ",
    "lat": "26.5061111",
    "lng": "127.8591666",
    "address": "沖縄県恩納村",
    "type":"海水浴"
    
  },
  {
    "id": "97",
    "name": "リザンシーパークビーチ",
    "lat": "26.4630555",
    "lng": "127.8158333",
    "address": "沖縄県恩納村",
    "type":"海水浴"
    
  },
  {
    "id": "98",
    "name": "サンマリーナビーチ",
    "lat": "26.4622222",
    "lng": "127.8116666",
    "address": "沖縄県恩納村",
    "type":"海水浴"
    
  },
  {
    "id": "99",
    "name": "ムーンビーチ",
    "lat": "26.4508333",
    "lng": "127.8019444",
    "address": "沖縄県恩納村",
    "type":"海水浴"
    
  },
  {
    "id": "100",
    "name": "ルネッサンスビーチ",
    "lat": "26.4358333",
    "lng": "127.7877777",
    "address": "沖縄県恩納村",
    "type":"海水浴"
    
  }
]
