[
  {
    "id": "1",
    "name": "大雪高原温泉の紅葉",
    "lat": "43.6261111",
    "lng": "142.9305555",
    "address": "北海道上川町",
    "type":"紅葉"
  },
  {
    "id": "2",
    "name": "卯原内サンゴ草群落",
    "lat": "44.0288888",
    "lng": "144.0994444",
    "address": "北海道網走市",
    "type":"紅葉"
  },
  {
    "id": "3",
    "name": "サンゴ岬",
    "lat": "44.1833333",
    "lng": "143.6738888",
    "address": "北海道湧別町",
    "type":"紅葉"
  },
  {
    "id": "4",
    "name": "大沼公園",
    "lat": "41.9813888",
    "lng": "140.6694444",
    "address": "北海道七飯町",
    "type":"紅葉"
  },
  {
    "id": "5",
    "name": "紅葉山",
    "lat": "40.6094444",
    "lng": "140.6861111",
    "address": "青森県黒石市",
    "type":"紅葉"
  },
  {
    "id": "6",
    "name": "城ヶ倉渓流",
    "lat": "40.6491666",
    "lng": "140.8297222",
    "address": "青森県青森市",
    "type":"紅葉"
  },
  {
    "id": "7",
    "name": "奥入瀬渓流",
    "lat": "40.5233333",
    "lng": "140.9744444",
    "address": "青森県十和田市",
    "type":"紅葉"
  },
  {
    "id": "8",
    "name": "福泉寺",
    "lat": "39.3736111",
    "lng": "141.5636111",
    "address": "岩手県遠野市",
    "type":"紅葉"
  },
  {
    "id": "9",
    "name": "久慈渓流",
    "lat": "40.1738888",
    "lng": "141.6502777",
    "address": "岩手県久慈市",
    "type":"紅葉"
  },
  {
    "id": "10",
    "name": "鳴子峡",
    "lat": "38.7352777",
    "lng": "140.6913888",
    "address": "宮城県大崎市",
    "type":"紅葉"
  },
  {
    "id": "11",
    "name": "阿武隈ライン",
    "lat": "37.9186111",
    "lng": "140.6883333",
    "address": "宮城県丸森町",
    "type":"紅葉"
  },
  {
    "id": "12",
    "name": "秋ノ宮",
    "lat": "38.9594444",
    "lng": "140.53",
    "address": "秋田県湯沢市",
    "type":"紅葉"
  },
  {
    "id": "13",
    "name": "岨谷峡",
    "lat": "39.7008333",
    "lng": "140.3508333",
    "address": "秋田県秋田市",
    "type":"紅葉"
  },
  {
    "id": "14",
    "name": "赤芝峡",
    "lat": "38.0788888",
    "lng": "139.7088888",
    "address": "山形県小国町",
    "type":"紅葉"
  },
  {
    "id": "15",
    "name": "天元台",
    "lat": "37.7788888",
    "lng": "140.1366666",
    "address": "山形県米沢市",
    "type":"紅葉"
  },
  {
    "id": "16",
    "name": "田子倉湖",
    "lat": "37.3125",
    "lng": "139.2825",
    "address": "福島県只見町",
    "type":"紅葉"
  },
  {
    "id": "17",
    "name": "霊山",
    "lat": "37.7719444",
    "lng": "140.6844444",
    "address": "福島県伊達市、相馬市",
    "type":"紅葉"
  },
  {
    "id": "18",
    "name": "御前山",
    "lat": "36.5438888",
    "lng": "140.3236111",
    "address": "茨城県城里町",
    "type":"紅葉"
  },
  {
    "id": "19",
    "name": "袋田の滝",
    "lat": "36.7644444",
    "lng": "140.4069444",
    "address": "茨城県大子町",
    "type":"紅葉"
  },
  {
    "id": "20",
    "name": "いろは坂",
    "lat": "36.7294444",
    "lng": "139.5255555",
    "address": "栃木県日光市",
    "type":"紅葉"
  },
  {
    "id": "21",
    "name": "龍王峡",
    "lat": "36.8636111",
    "lng": "139.7127777",
    "address": "栃木県日光市",
    "type":"紅葉"
  },
  {
    "id": "22",
    "name": "白根山",
    "lat": "36.6441666",
    "lng": "138.5302777",
    "address": "群馬県草津町",
    "type":"紅葉"
  },
  {
    "id": "23",
    "name": "妙義山",
    "lat": "36.2916666",
    "lng": "138.75",
    "address": "群馬県富岡市",
    "type":"紅葉"
  },
  {
    "id": "24",
    "name": "中津峡",
    "lat": "35.9775",
    "lng": "138.8402777",
    "address": "埼玉県秩父市",
    "type":"紅葉"
  },
  {
    "id": "25",
    "name": "長瀞",
    "lat": "36.0986111",
    "lng": "139.1141666",
    "address": "埼玉県長瀞町",
    "type":"紅葉"
  },
  {
    "id": "26",
    "name": "養老渓谷",
    "lat": "35.2244444",
    "lng": "140.1788888",
    "address": "千葉県大多喜町",
    "type":"紅葉"
  },
  {
    "id": "27",
    "name": "平和公園",
    "lat": "35.5927777",
    "lng": "140.2022222",
    "address": "千葉県千葉市",
    "type":"紅葉"
  },
  {
    "id": "28",
    "name": "高尾山",
    "lat": "35.6252777",
    "lng": "139.2436111",
    "address": "東京都八王子市",
    "type":"紅葉"
  },
  {
    "id": "29",
    "name": "多摩湖",
    "lat": "35.7633333",
    "lng": "139.4216666",
    "address": "東京都東大和市",
    "type":"紅葉"
  },
  {
    "id": "30",
    "name": "箱根",
    "lat": "35.2127777",
    "lng": "139.01",
    "address": "神奈川県箱根町",
    "type":"紅葉"
  },
  {
    "id": "31",
    "name": "中川温泉",
    "lat": "35.4433333",
    "lng": "139.0513888",
    "address": "神奈川県山北町",
    "type":"紅葉"
  },
  {
    "id": "32",
    "name": "清津峡",
    "lat": "36.9736111",
    "lng": "138.7494444",
    "address": "新潟県十日町市",
    "type":"紅葉"
  },
  {
    "id": "33",
    "name": "阿賀野川ライン",
    "lat": "37.7038888",
    "lng": "139.3794444",
    "address": "新潟県阿賀町",
    "type":"紅葉"
  },
  {
    "id": "34",
    "name": "笹ヶ峰",
    "lat": "36.8611111",
    "lng": "138.0888888",
    "address": "新潟県妙高市",
    "type":"紅葉"
  },
  {
    "id": "35",
    "name": "有峰湖",
    "lat": "36.4908333",
    "lng": "137.4558333",
    "address": "富山県富山市",
    "type":"紅葉"
  },
  {
    "id": "36",
    "name": "神通峡",
    "lat": "36.5311111",
    "lng": "137.2325",
    "address": "富山県富山市",
    "type":"紅葉"
  },
  {
    "id": "37",
    "name": "白山スーパー林道",
    "lat": "36.2547222",
    "lng": "136.7994444",
    "address": "石川県白山市",
    "type":"紅葉"
  },
  {
    "id": "38",
    "name": "那谷寺",
    "lat": "36.3119444",
    "lng": "136.4216666",
    "address": "石川県小松市",
    "type":"紅葉"
  },
  {
    "id": "39",
    "name": "西福寺",
    "lat": "35.6566666",
    "lng": "136.0319444",
    "address": "福井県敦賀市",
    "type":"紅葉"
  },
  {
    "id": "40",
    "name": "万徳寺",
    "lat": "35.4691666",
    "lng": "135.7847222",
    "address": "福井県小浜市",
    "type":"紅葉"
  },
  {
    "id": "41",
    "name": "四尾連湖畔",
    "lat": "35.5294444",
    "lng": "138.5172222",
    "address": "山梨県市川三郷町",
    "type":"紅葉"
  },
  {
    "id": "42",
    "name": "紅葉台展望台",
    "lat": "35.4838888",
    "lng": "138.6791666",
    "address": "山梨県富士河口湖町、鳴沢村",
    "type":"紅葉"
  },
  {
    "id": "43",
    "name": "昇仙峡",
    "lat": "35.7402777",
    "lng": "138.5652777",
    "address": "山梨県甲府市",
    "type":"紅葉"
  },
  {
    "id": "44",
    "name": "麦草峠",
    "lat": "36.0588888",
    "lng": "138.3461111",
    "address": "長野県茅野市、佐久穂町",
    "type":"紅葉"
  },
  {
    "id": "45",
    "name": "戸隠高原",
    "lat": "36.7536111",
    "lng": "138.0783333",
    "address": "長野県長野市",
    "type":"紅葉"
  },
  {
    "id": "46",
    "name": "阿寺渓谷",
    "lat": "35.6825",
    "lng": "137.6061111",
    "address": "長野県大桑村",
    "type":"紅葉"
  },
  {
    "id": "47",
    "name": "大矢田もみじ谷",
    "lat": "35.5555555",
    "lng": "136.8683333",
    "address": "岐阜県美濃市",
    "type":"紅葉"
  },
  {
    "id": "48",
    "name": "蘇水峡",
    "lat": "35.4647222",
    "lng": "137.1641666",
    "address": "岐阜県八百津町",
    "type":"紅葉"
  },
  {
    "id": "49",
    "name": "滑沢渓谷",
    "lat": "34.8469444",
    "lng": "138.9155555",
    "address": "静岡県伊豆市",
    "type":"紅葉"
  },
  {
    "id": "50",
    "name": "接岨峡",
    "lat": "35.1927777",
    "lng": "138.1897222",
    "address": "静岡県静岡市",
    "type":"紅葉"
  },
  {
    "id": "51",
    "name": "大入渓谷",
    "lat": "35.0988888",
    "lng": "137.7644444",
    "address": "愛知県東栄町",
    "type":"紅葉"
  },
  {
    "id": "52",
    "name": "飯盛山",
    "lat": "35.1325",
    "lng": "137.3161111",
    "address": "愛知県豊田市",
    "type":"紅葉"
  },
  {
    "id": "53",
    "name": "香落谷",
    "lat": "34.5783333",
    "lng": "136.1161111",
    "address": "三重県名張市",
    "type":"紅葉"
  },
  {
    "id": "54",
    "name": "香肌峡",
    "lat": "34.3961111",
    "lng": "136.22",
    "address": "三重県松阪市",
    "type":"紅葉"
  },
  {
    "id": "55",
    "name": "生杉ブナ原生林",
    "lat": "35.3536111",
    "lng": "135.7813888",
    "address": "滋賀県高島市",
    "type":"紅葉"
  },
  {
    "id": "56",
    "name": "百済寺",
    "lat": "35.1269444",
    "lng": "136.2913888",
    "address": "滋賀県東近江市",
    "type":"紅葉"
  },
  {
    "id": "57",
    "name": "神護寺〜高山寺",
    "lat": "35.055",
    "lng": "135.6708333",
    "address": "京都府京都市",
    "type":"紅葉"
  },
  {
    "id": "58",
    "name": "三千院",
    "lat": "35.1188888",
    "lng": "135.8341666",
    "address": "京都府京都市",
    "type":"紅葉"
  },
  {
    "id": "59",
    "name": "大江山",
    "lat": "35.4561111",
    "lng": "135.1288888",
    "address": "京都府福知山市",
    "type":"紅葉"
  },
  {
    "id": "60",
    "name": "箕面川渓谷",
    "lat": "34.8505555",
    "lng": "135.475",
    "address": "大阪府箕面市",
    "type":"紅葉"
  },
  {
    "id": "61",
    "name": "犬鳴山渓谷",
    "lat": "34.3408333",
    "lng": "135.3802777",
    "address": "大阪府泉佐野市",
    "type":"紅葉"
  },
  {
    "id": "62",
    "name": "音水渓谷",
    "lat": "35.2477777",
    "lng": "134.5255555",
    "address": "兵庫県宍粟市",
    "type":"紅葉"
  },
  {
    "id": "63",
    "name": "羅漢渓谷",
    "lat": "34.8827777",
    "lng": "134.4436111",
    "address": "兵庫県相生市",
    "type":"紅葉"
  },
  {
    "id": "64",
    "name": "高源寺",
    "lat": "35.2452777",
    "lng": "134.9725",
    "address": "兵庫県丹波市",
    "type":"紅葉"
  },
  {
    "id": "65",
    "name": "長岳寺",
    "lat": "34.5608333",
    "lng": "135.8519444",
    "address": "奈良県天理市",
    "type":"紅葉"
  },
  {
    "id": "66",
    "name": "談山神社",
    "lat": "34.4661111",
    "lng": "135.8616666",
    "address": "奈良県桜井市",
    "type":"紅葉"
  },
  {
    "id": "67",
    "name": "護摩壇山高野龍神スカイライン",
    "lat": "34.0572222",
    "lng": "135.5652777",
    "address": "和歌山県田辺市",
    "type":"紅葉"
  },
  {
    "id": "68",
    "name": "百間山渓谷",
    "lat": "33.7144444",
    "lng": "135.6191666",
    "address": "和歌山県田辺市",
    "type":"紅葉"
  },
  {
    "id": "69",
    "name": "船上山",
    "lat": "35.4333333",
    "lng": "133.595",
    "address": "鳥取県琴浦町",
    "type":"紅葉"
  },
  {
    "id": "70",
    "name": "三国山",
    "lat": "35.3302777",
    "lng": "134.0591666",
    "address": "鳥取県鳥取市",
    "type":"紅葉"
  },
  {
    "id": "71",
    "name": "双川峡",
    "lat": "34.6972222",
    "lng": "132.0583333",
    "address": "島根県益田市",
    "type":"紅葉"
  },
  {
    "id": "72",
    "name": "女亀山",
    "lat": "34.9480555",
    "lng": "132.7202777",
    "address": "島根県飯南町、広島県三次市",
    "type":"紅葉"
  },
  {
    "id": "73",
    "name": "宇甘渓",
    "lat": "34.8483333",
    "lng": "133.8336111",
    "address": "岡山県吉備中央町",
    "type":"紅葉"
  },
  {
    "id": "74",
    "name": "天神峡",
    "lat": "34.6441666",
    "lng": "133.4241666",
    "address": "岡山県井原市",
    "type":"紅葉"
  },
  {
    "id": "75",
    "name": "深山渓",
    "lat": "34.6130555",
    "lng": "132.3069444",
    "address": "広島県安芸太田町",
    "type":"紅葉"
  },
  {
    "id": "76",
    "name": "三室山公園",
    "lat": "34.5836111",
    "lng": "133.2230555",
    "address": "広島県府中市",
    "type":"紅葉"
  },
  {
    "id": "77",
    "name": "寂地峡",
    "lat": "34.4355555",
    "lng": "132.0516666",
    "address": "山口県岩国市",
    "type":"紅葉"
  },
  {
    "id": "78",
    "name": "長野山緑地公園",
    "lat": "34.2747222",
    "lng": "131.8786111",
    "address": "山口県岩国市、周南市",
    "type":"紅葉"
  },
  {
    "id": "79",
    "name": "高の瀬峡",
    "lat": "33.7883333",
    "lng": "134.0783333",
    "address": "徳島県那賀町",
    "type":"紅葉"
  },
  {
    "id": "80",
    "name": "紅葉川渓谷",
    "lat": "33.8077777",
    "lng": "134.4375",
    "address": "徳島県那賀町",
    "type":"紅葉"
  },
  {
    "id": "81",
    "name": "大川ダム",
    "lat": "34.2361111",
    "lng": "134.2483333",
    "address": "香川県さぬき市",
    "type":"紅葉"
  },
  {
    "id": "82",
    "name": "五郷山公園",
    "lat": "34.0675",
    "lng": "133.6894444",
    "address": "香川県観音寺市",
    "type":"紅葉"
  },
  {
    "id": "83",
    "name": "白滝公園",
    "lat": "33.5822222",
    "lng": "132.5305555",
    "address": "愛媛県大洲市",
    "type":"紅葉"
  },
  {
    "id": "84",
    "name": "小田深山渓谷",
    "lat": "33.5297222",
    "lng": "132.8933333",
    "address": "愛媛県内子町",
    "type":"紅葉"
  },
  {
    "id": "85",
    "name": "別府峡",
    "lat": "33.7752777",
    "lng": "134.0244444",
    "address": "高知県香美市",
    "type":"紅葉"
  },
  {
    "id": "86",
    "name": "大北川渓谷",
    "lat": "33.8169444",
    "lng": "133.4405555",
    "address": "高知県大川村",
    "type":"紅葉"
  },
  {
    "id": "87",
    "name": "内ヶ磯渓谷",
    "lat": "33.7555555",
    "lng": "130.7786111",
    "address": "福岡県直方市",
    "type":"紅葉"
  },
  {
    "id": "88",
    "name": "深倉峡",
    "lat": "33.4625",
    "lng": "130.8836111",
    "address": "福岡県添田町",
    "type":"紅葉"
  },
  {
    "id": "89",
    "name": "有田公園",
    "lat": "33.1888888",
    "lng": "129.8994444",
    "address": "佐賀県有田町",
    "type":"紅葉"
  },
  {
    "id": "90",
    "name": "十可苑",
    "lat": "33.3288888",
    "lng": "130.2686111",
    "address": "佐賀県佐賀市",
    "type":"紅葉"
  },
  {
    "id": "91",
    "name": "仁田峠",
    "lat": "32.7508333",
    "lng": "130.2833333",
    "address": "長崎県雲仙市",
    "type":"紅葉"
  },
  {
    "id": "92",
    "name": "ミルマツナ",
    "lat": "33.1738888",
    "lng": "130.2725",
    "address": "佐賀県佐賀市",
    "type":"紅葉"
  },
  {
    "id": "93",
    "name": "吉無田高原",
    "lat": "32.7775",
    "lng": "130.9280555",
    "address": "熊本県御船町",
    "type":"紅葉"
  },
  {
    "id": "94",
    "name": "蘇陽峡",
    "lat": "32.7197222",
    "lng": "131.1791666",
    "address": "熊本県山都町",
    "type":"紅葉"
  },
  {
    "id": "95",
    "name": "九酔渓",
    "lat": "33.1747222",
    "lng": "131.2233333",
    "address": "大分県九重町",
    "type":"紅葉"
  },
  {
    "id": "96",
    "name": "藤河内渓谷",
    "lat": "32.7905555",
    "lng": "131.5525",
    "address": "大分県佐伯市",
    "type":"紅葉"
  },
  {
    "id": "97",
    "name": "クルソン峡",
    "lat": "32.0763888",
    "lng": "130.9208333",
    "address": "宮崎県えびの市",
    "type":"紅葉"
  },
  {
    "id": "98",
    "name": "五ヶ瀬渓谷",
    "lat": "32.6177777",
    "lng": "131.1619444",
    "address": "宮崎県五ヶ瀬町",
    "type":"紅葉"
  },
  {
    "id": "99",
    "name": "宮人曽木の滝公園",
    "lat": "32.0111111",
    "lng": "130.5769444",
    "address": "鹿児島県伊佐市",
    "type":"紅葉"
  },
  {
    "id": "100",
    "name": "霧島連山の紅葉",
    "lat": "31.9252777",
    "lng": "130.8377777",
    "address": "鹿児島県霧島市",
    "type":"紅葉"
  }
]
