[
  {
    "id": "1",
    "name": "二十間道路桜並木",
    "lat": "42.3908333",
    "lng": "142.4311111",
    "address": "北海道新ひだか町",
    "type":"桜"
  },
  {
    "id": "2",
    "name": "松前公園",
    "lat": "41.4297222",
    "lng": "140.1083333",
    "address": "北海道松前町",
    "type":"桜"
  },
  {
    "id": "3",
    "name": "芦野池沼群県立自然公園",
    "lat": "40.9138888",
    "lng": "140.4505555",
    "address": "青森県五所川原市",
    "type":"桜"
  },
  {
    "id": "4",
    "name": "弘前公園",
    "lat": "40.6083333",
    "lng": "140.4652777",
    "address": "青森県弘前市",
    "type":"桜"
  },
  {
    "id": "5",
    "name": "高松公園",
    "lat": "39.7227777",
    "lng": "141.1438888",
    "address": "岩手県盛岡市",
    "type":"桜"
  },
  {
    "id": "6",
    "name": "北上市立公園展勝地",
    "lat": "39.2777777",
    "lng": "141.1263888",
    "address": "岩手県北上市",
    "type":"桜"
  },
  {
    "id": "7",
    "name": "船岡城址公園・白石川堤",
    "lat": "38.0558333",
    "lng": "140.7563888",
    "address": "宮城県柴田町",
    "type":"桜"
  },
  {
    "id": "8",
    "name": "桧木内川堤・角館武家屋敷",
    "lat": "39.5991666",
    "lng": "140.5588888",
    "address": "秋田県仙北市",
    "type":"桜"
  },
  {
    "id": "9",
    "name": "千秋公園",
    "lat": "39.7225",
    "lng": "140.1241666",
    "address": "秋田県秋田市",
    "type":"桜"
  },
  {
    "id": "10",
    "name": "真人公園",
    "lat": "39.21",
    "lng": "140.5730555",
    "address": "秋田県横手市",
    "type":"桜"
  },
  {
    "id": "11",
    "name": "鶴岡公園",
    "lat": "38.7286111",
    "lng": "139.8244444",
    "address": "山形県鶴岡市",
    "type":"桜"
  },
  {
    "id": "12",
    "name": "烏帽子山公園",
    "lat": "38.0516666",
    "lng": "140.1647222",
    "address": "山形県南陽市",
    "type":"桜"
  },
  {
    "id": "13",
    "name": "三春町のシダレザクラ",
    "lat": "37.4077777",
    "lng": "140.5",
    "address": "福島県三春町",
    "type":"桜"
  },
  {
    "id": "14",
    "name": "霞ヶ城公園",
    "lat": "37.5994444",
    "lng": "140.4277777",
    "address": "福島県二本松市",
    "type":"桜"
  },
  {
    "id": "15",
    "name": "鶴ヶ城公園",
    "lat": "37.4875",
    "lng": "139.93",
    "address": "福島県会津若松市",
    "type":"桜"
  },
  {
    "id": "16",
    "name": "日立市かみね公園・平和通り",
    "lat": "36.6105555",
    "lng": "140.6563888",
    "address": "茨城県日立市",
    "type":"桜"
  },
  {
    "id": "17",
    "name": "静峰公園",
    "lat": "36.5019444",
    "lng": "140.4202777",
    "address": "茨城県那珂市",
    "type":"桜"
  },
  {
    "id": "18",
    "name": "日光街道桜並木",
    "lat": "36.6677777",
    "lng": "139.8213888",
    "address": "栃木県宇都宮市",
    "type":"桜"
  },
  {
    "id": "19",
    "name": "太平山県立自然公園",
    "lat": "36.3683333",
    "lng": "139.6986111",
    "address": "栃木県栃木市",
    "type":"桜"
  },
  {
    "id": "20",
    "name": "赤城南面千本桜",
    "lat": "36.4725",
    "lng": "139.1902777",
    "address": "群馬県前橋市",
    "type":"桜"
  },
  {
    "id": "21",
    "name": "桜山公園",
    "lat": "36.1619444",
    "lng": "139.0213888",
    "address": "群馬県藤岡市",
    "type":"桜"
  },
  {
    "id": "22",
    "name": "熊谷桜堤",
    "lat": "36.1338888",
    "lng": "139.39",
    "address": "埼玉県熊谷市",
    "type":"桜"
  },
  {
    "id": "23",
    "name": "大宮公園",
    "lat": "35.9180555",
    "lng": "139.6316666",
    "address": "埼玉県さいたま市",
    "type":"桜"
  },
  {
    "id": "24",
    "name": "長瀞",
    "lat": "36.0986111",
    "lng": "139.1141666",
    "address": "埼玉県長瀞町",
    "type":"桜"
  },
  {
    "id": "25",
    "name": "清水公園",
    "lat": "35.9605555",
    "lng": "139.8508333",
    "address": "千葉県野田市",
    "type":"桜"
  },
  {
    "id": "26",
    "name": "茂原公園",
    "lat": "35.4302777",
    "lng": "140.2822222",
    "address": "千葉県茂原市",
    "type":"桜"
  },
  {
    "id": "27",
    "name": "泉自然公園",
    "lat": "35.5780555",
    "lng": "140.2266666",
    "address": "千葉県千葉市",
    "type":"桜"
  },
  {
    "id": "28",
    "name": "上野恩賜公園",
    "lat": "35.7166666",
    "lng": "139.7741666",
    "address": "東京都台東区",
    "type":"桜"
  },
  {
    "id": "29",
    "name": "新宿御苑",
    "lat": "35.6855555",
    "lng": "139.7102777",
    "address": "東京都新宿区",
    "type":"桜"
  },
  {
    "id": "30",
    "name": "隅田公園",
    "lat": "35.7122222",
    "lng": "139.8038888",
    "address": "東京都墨田区",
    "type":"桜"
  },
  {
    "id": "31",
    "name": "小金井公園",
    "lat": "35.7158333",
    "lng": "139.5180555",
    "address": "東京都小金井市",
    "type":"桜"
  },
  {
    "id": "32",
    "name": "井の頭恩賜公園",
    "lat": "35.7",
    "lng": "139.5744444",
    "address": "東京都武蔵野市",
    "type":"桜"
  },
  {
    "id": "33",
    "name": "県立三ツ池公園",
    "lat": "35.5219444",
    "lng": "139.6586111",
    "address": "神奈川県横浜市",
    "type":"桜"
  },
  {
    "id": "34",
    "name": "小田原城址公園・城山公園",
    "lat": "35.2508333",
    "lng": "139.1541666",
    "address": "神奈川県小田原市",
    "type":"桜"
  },
  {
    "id": "35",
    "name": "衣笠山公園",
    "lat": "35.2491666",
    "lng": "139.66",
    "address": "神奈川県横須賀市",
    "type":"桜"
  },
  {
    "id": "36",
    "name": "大河津分水",
    "lat": "37.6369444",
    "lng": "138.8261111",
    "address": "新潟県燕市",
    "type":"桜"
  },
  {
    "id": "37",
    "name": "高田公園",
    "lat": "37.1094444",
    "lng": "138.2552777",
    "address": "新潟県上越市",
    "type":"桜"
  },
  {
    "id": "38",
    "name": "村松公園",
    "lat": "37.6891666",
    "lng": "139.1886111",
    "address": "新潟県五泉市",
    "type":"桜"
  },
  {
    "id": "39",
    "name": "高岡古城公園",
    "lat": "36.7491666",
    "lng": "137.0225",
    "address": "富山県高岡市",
    "type":"桜"
  },
  {
    "id": "40",
    "name": "松川公園",
    "lat": "36.6944444",
    "lng": "137.2072222",
    "address": "富山県富山市",
    "type":"桜"
  },
  {
    "id": "41",
    "name": "兼六園",
    "lat": "36.5619444",
    "lng": "136.6619444",
    "address": "石川県金沢市",
    "type":"桜"
  },
  {
    "id": "42",
    "name": "足羽川・足羽山公園",
    "lat": "36.0555555",
    "lng": "136.2058333",
    "address": "福井県福井市",
    "type":"桜"
  },
  {
    "id": "43",
    "name": "霞ヶ城公園",
    "lat": "36.1525",
    "lng": "136.2722222",
    "address": "福井県坂井市",
    "type":"桜"
  },
  {
    "id": "44",
    "name": "大法師公園",
    "lat": "35.5455555",
    "lng": "138.4544444",
    "address": "山梨県富士川町",
    "type":"桜"
  },
  {
    "id": "45",
    "name": "小諸城趾懐古園",
    "lat": "36.3277777",
    "lng": "138.4175",
    "address": "長野県小諸市",
    "type":"桜"
  },
  {
    "id": "46",
    "name": "高遠城址公園",
    "lat": "35.8327777",
    "lng": "138.0625",
    "address": "長野県伊那市",
    "type":"桜"
  },
  {
    "id": "47",
    "name": "臥竜公園",
    "lat": "36.6438888",
    "lng": "138.3141666",
    "address": "長野県須坂市",
    "type":"桜"
  },
  {
    "id": "48",
    "name": "新境川堤・百十郎桜",
    "lat": "35.4094444",
    "lng": "136.8436111",
    "address": "岐阜県各務原市",
    "type":"桜"
  },
  {
    "id": "49",
    "name": "霞間ヶ渓",
    "lat": "35.4311111",
    "lng": "136.5505555",
    "address": "岐阜県池田町",
    "type":"桜"
  },
  {
    "id": "50",
    "name": "根尾谷・淡墨公園",
    "lat": "35.6319444",
    "lng": "136.6083333",
    "address": "岐阜県本巣市",
    "type":"桜"
  },
  {
    "id": "51",
    "name": "冨士霊園",
    "lat": "35.3716666",
    "lng": "138.9052777",
    "address": "静岡県小山町",
    "type":"桜"
  },
  {
    "id": "52",
    "name": "さくらの里",
    "lat": "34.9066666",
    "lng": "139.0902777",
    "address": "静岡県伊東市",
    "type":"桜"
  },
  {
    "id": "53",
    "name": "岡崎公園",
    "lat": "34.9569444",
    "lng": "137.1608333",
    "address": "愛知県岡崎市",
    "type":"桜"
  },
  {
    "id": "54",
    "name": "山崎川四季の道",
    "lat": "35.1288888",
    "lng": "136.9436111",
    "address": "愛知県名古屋市",
    "type":"桜"
  },
  {
    "id": "55",
    "name": "鶴舞公園",
    "lat": "35.1547222",
    "lng": "136.9197222",
    "address": "愛知県名古屋市",
    "type":"桜"
  },
  {
    "id": "56",
    "name": "五条川",
    "lat": "35.3294444",
    "lng": "136.9061111",
    "address": "愛知県岩倉市・江南市・大口町",
    "type":"桜"
  },
  {
    "id": "57",
    "name": "三多気",
    "lat": "34.5183333",
    "lng": "136.2208333",
    "address": "三重県津市",
    "type":"桜"
  },
  {
    "id": "58",
    "name": "宮川堤",
    "lat": "34.4933333",
    "lng": "136.6852777",
    "address": "三重県伊勢市",
    "type":"桜"
  },
  {
    "id": "59",
    "name": "海津大崎",
    "lat": "35.4488888",
    "lng": "136.0875",
    "address": "滋賀県高島市",
    "type":"桜"
  },
  {
    "id": "60",
    "name": "豊公園",
    "lat": "35.3772222",
    "lng": "136.2611111",
    "address": "滋賀県長浜市",
    "type":"桜"
  },
  {
    "id": "61",
    "name": "嵐山",
    "lat": "35.0108333",
    "lng": "135.6791666",
    "address": "京都府京都市",
    "type":"桜"
  },
  {
    "id": "62",
    "name": "御室桜",
    "lat": "35.0297222",
    "lng": "135.7133333",
    "address": "京都府京都市",
    "type":"桜"
  },
  {
    "id": "63",
    "name": "醍醐寺",
    "lat": "34.9511111",
    "lng": "135.8238888",
    "address": "京都府京都市",
    "type":"桜"
  },
  {
    "id": "64",
    "name": "笠置山自然公園",
    "lat": "34.7533333",
    "lng": "135.9416666",
    "address": "京都府笠置町",
    "type":"桜"
  },
  {
    "id": "65",
    "name": "大阪城公園",
    "lat": "34.6858333",
    "lng": "135.5316666",
    "address": "大阪府大阪市",
    "type":"桜"
  },
  {
    "id": "66",
    "name": "造幣局",
    "lat": "34.6966666",
    "lng": "135.5208333",
    "address": "大阪府大阪市",
    "type":"桜"
  },
  {
    "id": "67",
    "name": "万博記念公園",
    "lat": "34.8102777",
    "lng": "135.5305555",
    "address": "大阪府吹田市",
    "type":"桜"
  },
  {
    "id": "68",
    "name": "姫路城",
    "lat": "34.8413888",
    "lng": "134.6947222",
    "address": "兵庫県姫路市",
    "type":"桜"
  },
  {
    "id": "69",
    "name": "明石公園",
    "lat": "34.6527777",
    "lng": "134.9919444",
    "address": "兵庫県明石市",
    "type":"桜"
  },
  {
    "id": "70",
    "name": "夙川公園・夙川河川敷緑地",
    "lat": "34.745",
    "lng": "135.3288888",
    "address": "兵庫県西宮市",
    "type":"桜"
  },
  {
    "id": "71",
    "name": "奈良公園",
    "lat": "34.6822222",
    "lng": "135.8469444",
    "address": "奈良県奈良市",
    "type":"桜"
  },
  {
    "id": "72",
    "name": "吉野山",
    "lat": "34.3602777",
    "lng": "135.8638888",
    "address": "奈良県吉野町",
    "type":"桜"
  },
  {
    "id": "73",
    "name": "郡山城址公園",
    "lat": "34.6516666",
    "lng": "135.7788888",
    "address": "奈良県大和郡山市",
    "type":"桜"
  },
  {
    "id": "74",
    "name": "紀三井寺",
    "lat": "34.185",
    "lng": "135.19",
    "address": "和歌山県和歌山市",
    "type":"桜"
  },
  {
    "id": "75",
    "name": "根来寺",
    "lat": "34.2872222",
    "lng": "135.3163888",
    "address": "和歌山県岩出市",
    "type":"桜"
  },
  {
    "id": "76",
    "name": "七川ダム湖畔",
    "lat": "33.5936111",
    "lng": "135.6975",
    "address": "和歌山県古座川町",
    "type":"桜"
  },
  {
    "id": "77",
    "name": "久松公園",
    "lat": "35.5072222",
    "lng": "134.2372222",
    "address": "鳥取県鳥取市",
    "type":"桜"
  },
  {
    "id": "78",
    "name": "打吹公園",
    "lat": "35.4297222",
    "lng": "133.8236111",
    "address": "鳥取県倉吉市",
    "type":"桜"
  },
  {
    "id": "79",
    "name": "松江城山公園",
    "lat": "35.475",
    "lng": "133.0502777",
    "address": "島根県松江市",
    "type":"桜"
  },
  {
    "id": "80",
    "name": "斐伊川堤防桜並木",
    "lat": "35.3005555",
    "lng": "132.8983333",
    "address": "島根県雲南市",
    "type":"桜"
  },
  {
    "id": "81",
    "name": "鶴山公園",
    "lat": "35.0622222",
    "lng": "134.0052777",
    "address": "岡山県津山市",
    "type":"桜"
  },
  {
    "id": "82",
    "name": "千光寺公園",
    "lat": "34.4125",
    "lng": "133.195",
    "address": "広島県尾道市",
    "type":"桜"
  },
  {
    "id": "83",
    "name": "上野公園",
    "lat": "34.8577777",
    "lng": "133.0230555",
    "address": "広島県庄原市",
    "type":"桜"
  },
  {
    "id": "84",
    "name": "吉香公園・錦帯橋",
    "lat": "34.1708333",
    "lng": "132.1775",
    "address": "山口県岩国市",
    "type":"桜"
  },
  {
    "id": "85",
    "name": "常盤公園",
    "lat": "33.9530555",
    "lng": "131.2855555",
    "address": "山口県宇部市",
    "type":"桜"
  },
  {
    "id": "86",
    "name": "西部公園",
    "lat": "34.0680555",
    "lng": "134.5144444",
    "address": "徳島県徳島市",
    "type":"桜"
  },
  {
    "id": "87",
    "name": "琴弾公園",
    "lat": "34.1336111",
    "lng": "133.6433333",
    "address": "香川県観音寺市",
    "type":"桜"
  },
  {
    "id": "88",
    "name": "城山公園",
    "lat": "33.8444444",
    "lng": "132.7661111",
    "address": "愛媛県松山市",
    "type":"桜"
  },
  {
    "id": "89",
    "name": "鏡野公園",
    "lat": "33.6186111",
    "lng": "133.7191666",
    "address": "高知県香美市",
    "type":"桜"
  },
  {
    "id": "90",
    "name": "牧野公園",
    "lat": "33.4975",
    "lng": "133.2886111",
    "address": "高知県佐川町",
    "type":"桜"
  },
  {
    "id": "91",
    "name": "西公園",
    "lat": "33.5980555",
    "lng": "130.3741666",
    "address": "福岡県福岡市",
    "type":"桜"
  },
  {
    "id": "92",
    "name": "小城公園",
    "lat": "33.2897222",
    "lng": "130.1961111",
    "address": "佐賀県小城市",
    "type":"桜"
  },
  {
    "id": "93",
    "name": "大村公園",
    "lat": "32.8972222",
    "lng": "129.9566666",
    "address": "長崎県大村市",
    "type":"桜"
  },
  {
    "id": "94",
    "name": "熊本城",
    "lat": "32.8058333",
    "lng": "130.7058333",
    "address": "熊本県熊本市",
    "type":"桜"
  },
  {
    "id": "95",
    "name": "市房ダム湖畔",
    "lat": "32.3219444",
    "lng": "131.0216666",
    "address": "熊本県水上村",
    "type":"桜"
  },
  {
    "id": "96",
    "name": "水俣市チェリーライン",
    "lat": "32.2291666",
    "lng": "130.4002777",
    "address": "熊本県水俣市",
    "type":"桜"
  },
  {
    "id": "97",
    "name": "岡城公園",
    "lat": "32.9691666",
    "lng": "131.4077777",
    "address": "大分県竹田市",
    "type":"桜"
  },
  {
    "id": "98",
    "name": "母智丘関之尾公園",
    "lat": "31.7497222",
    "lng": "131.0030555",
    "address": "宮崎県都城市",
    "type":"桜"
  },
  {
    "id": "99",
    "name": "忠元公園",
    "lat": "32.0513888",
    "lng": "130.6147222",
    "address": "鹿児島県伊佐市",
    "type":"桜"
  },
  {
    "id": "100",
    "name": "名護城公園",
    "lat": "26.5886111",
    "lng": "127.9933333",
    "address": "沖縄県名護市",
    "type":"桜"
  }
]
