[
  {
    "id": "1",
    "name": "野幌森林公園",
    "lat": "43.0447222",
    "lng": "141.5030555",
    "address": "北海道札幌市",
    "type":"森林浴"
  },
  {
    "id": "2",
    "name": "函館山",
    "lat": "41.7591666",
    "lng": "140.7044444",
    "address": "北海道函館市",
    "type":"森林浴"
  },
  {
    "id": "3",
    "name": "利尻島自然休養林",
    "lat": "45.2225",
    "lng": "141.2125",
    "address": "北海道利尻富士町",
    "type":"森林浴"
  },
  {
    "id": "4",
    "name": "網走自然休養林",
    "lat": "44.0938888",
    "lng": "144.2497222",
    "address": "北海道網走市",
    "type":"森林浴"
  },
  {
    "id": "5",
    "name": "浅虫生活環境保全林",
    "lat": "40.8986111",
    "lng": "140.8636111",
    "address": "青森県青森市",
    "type":"森林浴"
  },
  {
    "id": "6",
    "name": "十二湖自然休養林",
    "lat": "40.5658333",
    "lng": "139.9738888",
    "address": "青森県深浦町",
    "type":"森林浴"
  },
  {
    "id": "7",
    "name": "安比高原ブナ林",
    "lat": "40.0088888",
    "lng": "140.9572222",
    "address": "岩手県八幡平市",
    "type":"森林浴"
  },
  {
    "id": "8",
    "name": "耗山国有林 十二神自然観察教育林",
    "lat": "39.5355555",
    "lng": "141.9844444",
    "address": "岩手県宮古市",
    "type":"森林浴"
  },
  {
    "id": "9",
    "name": "高田松原",
    "lat": "39.0052777",
    "lng": "141.6344444",
    "address": "岩手県陸前高田市",
    "type":"森林浴"
  },
  {
    "id": "10",
    "name": "仙台自然休養林",
    "lat": "38.3030555",
    "lng": "140.8594444",
    "address": "宮城県仙台市",
    "type":"森林浴"
  },
  {
    "id": "11",
    "name": "宮城県県民の森",
    "lat": "38.335",
    "lng": "140.9405555",
    "address": "宮城県仙台市、利府町",
    "type":"森林浴"
  },
  {
    "id": "12",
    "name": "八幡平",
    "lat": "39.9577777",
    "lng": "140.8541666",
    "address": "秋田県鹿角市",
    "type":"森林浴"
  },
  {
    "id": "13",
    "name": "能代海岸の松原",
    "lat": "40.2025",
    "lng": "140.0063888",
    "address": "秋田県能代市",
    "type":"森林浴"
  },
  {
    "id": "14",
    "name": "羽黒山・参道の杉並木",
    "lat": "38.7030555",
    "lng": "139.9738888",
    "address": "山形県鶴岡市",
    "type":"森林浴"
  },
  {
    "id": "15",
    "name": "高館山自然休養林",
    "lat": "38.7633333",
    "lng": "139.7483333",
    "address": "山形県鶴岡市",
    "type":"森林浴"
  },
  {
    "id": "16",
    "name": "背あぶり山(会津東山自然休養林)",
    "lat": "37.4777777",
    "lng": "139.9927777",
    "address": "福島県会津若松市",
    "type":"森林浴"
  },
  {
    "id": "17",
    "name": "阿武隈川源流の原生林",
    "lat": "37.1786111",
    "lng": "139.9877777",
    "address": "福島県西郷村",
    "type":"森林浴"
  },
  {
    "id": "18",
    "name": "奥久慈憩いの森",
    "lat": "36.7633333",
    "lng": "140.4638888",
    "address": "茨城県大子町",
    "type":"森林浴"
  },
  {
    "id": "19",
    "name": "大洗の松林",
    "lat": "36.3180555",
    "lng": "140.5894444",
    "address": "茨城県大洗町",
    "type":"森林浴"
  },
  {
    "id": "20",
    "name": "大沼の森",
    "lat": "36.9505555",
    "lng": "139.7991666",
    "address": "栃木県那須塩原市",
    "type":"森林浴"
  },
  {
    "id": "21",
    "name": "釈迦ヶ岳の栃木県県民の森",
    "lat": "36.8730555",
    "lng": "139.8413888",
    "address": "栃木県矢板市",
    "type":"森林浴"
  },
  {
    "id": "22",
    "name": "桐生川源流林",
    "lat": "36.4922222",
    "lng": "139.4130555",
    "address": "群馬県桐生市",
    "type":"森林浴"
  },
  {
    "id": "23",
    "name": "武尊自然休養林",
    "lat": "36.8094444",
    "lng": "139.1908333",
    "address": "群馬県片品村",
    "type":"森林浴"
  },
  {
    "id": "24",
    "name": "埼玉県県民の森",
    "lat": "35.9938888",
    "lng": "139.1552777",
    "address": "埼玉県横瀬町",
    "type":"森林浴"
  },
  {
    "id": "25",
    "name": "両神国民休養地",
    "lat": "36.0008333",
    "lng": "138.9625",
    "address": "埼玉県小鹿野町",
    "type":"森林浴"
  },
  {
    "id": "26",
    "name": "館山野鳥の森",
    "lat": "34.9213888",
    "lng": "139.8347222",
    "address": "千葉県館山市",
    "type":"森林浴"
  },
  {
    "id": "27",
    "name": "鹿野山",
    "lat": "35.2533333",
    "lng": "139.9622222",
    "address": "千葉県富津市、君津市",
    "type":"森林浴"
  },
  {
    "id": "28",
    "name": "高尾山",
    "lat": "35.6252777",
    "lng": "139.2436111",
    "address": "東京都八王子市",
    "type":"森林浴"
  },
  {
    "id": "29",
    "name": "明治神宮の森",
    "lat": "35.6758333",
    "lng": "139.6991666",
    "address": "東京都渋谷区",
    "type":"森林浴"
  },
  {
    "id": "30",
    "name": "御岳山",
    "lat": "35.7827777",
    "lng": "139.1497222",
    "address": "東京都青梅市",
    "type":"森林浴"
  },
  {
    "id": "31",
    "name": "藤野(相模湖)の雑木林",
    "lat": "35.6058333",
    "lng": "139.1402777",
    "address": "神奈川県相模原市",
    "type":"森林浴"
  },
  {
    "id": "32",
    "name": "真鶴岬",
    "lat": "35.1438888",
    "lng": "139.155",
    "address": "神奈川県真鶴町",
    "type":"森林浴"
  },
  {
    "id": "33",
    "name": "西丹沢神奈川県県民の森",
    "lat": "35.4502777",
    "lng": "139.0769444",
    "address": "神奈川県山北町",
    "type":"森林浴"
  },
  {
    "id": "34",
    "name": "青木ヶ原樹海",
    "lat": "35.4691666",
    "lng": "138.6313888",
    "address": "山梨県富士河口湖町、鳴沢村",
    "type":"森林浴"
  },
  {
    "id": "35",
    "name": "西沢渓谷歩道",
    "lat": "35.8672222",
    "lng": "138.7369444",
    "address": "山梨県山梨市",
    "type":"森林浴"
  },
  {
    "id": "36",
    "name": "赤沢自然休養林",
    "lat": "35.7291666",
    "lng": "137.6261111",
    "address": "長野県上松町",
    "type":"森林浴"
  },
  {
    "id": "37",
    "name": "角間渓谷",
    "lat": "36.4561111",
    "lng": "138.3705555",
    "address": "長野県上田市、東御市",
    "type":"森林浴"
  },
  {
    "id": "38",
    "name": "五頭新潟県県民の森",
    "lat": "37.8213888",
    "lng": "139.3130555",
    "address": "新潟県阿賀野市、阿賀町",
    "type":"森林浴"
  },
  {
    "id": "39",
    "name": "弥彦神社社叢",
    "lat": "37.7066666",
    "lng": "138.8241666",
    "address": "新潟県弥彦村",
    "type":"森林浴"
  },
  {
    "id": "40",
    "name": "とやま県民公園頼成の森",
    "lat": "36.6322222",
    "lng": "137.0411111",
    "address": "富山県砺波市",
    "type":"森林浴"
  },
  {
    "id": "41",
    "name": "立山美女平・ブナ坂・下の小平",
    "lat": "36.5816666",
    "lng": "137.4658333",
    "address": "富山県立山町",
    "type":"森林浴"
  },
  {
    "id": "42",
    "name": "鉢伏山",
    "lat": "37.3777777",
    "lng": "136.9708333",
    "address": "石川県能登町",
    "type":"森林浴"
  },
  {
    "id": "43",
    "name": "石川県県民の森",
    "lat": "36.2302777",
    "lng": "136.4594444",
    "address": "石川県加賀市",
    "type":"森林浴"
  },
  {
    "id": "44",
    "name": "九頭竜国民休養地",
    "lat": "35.8991666",
    "lng": "136.6508333",
    "address": "福井県大野市",
    "type":"森林浴"
  },
  {
    "id": "45",
    "name": "八ヶ峰家族旅行村",
    "lat": "35.3586111",
    "lng": "135.6852777",
    "address": "福井県おおい町",
    "type":"森林浴"
  },
  {
    "id": "46",
    "name": "城山公園",
    "lat": "36.1358333",
    "lng": "137.2630555",
    "address": "岐阜県高山市",
    "type":"森林浴"
  },
  {
    "id": "47",
    "name": "付知峡",
    "lat": "35.6986111",
    "lng": "137.4258333",
    "address": "岐阜県中津川市",
    "type":"森林浴"
  },
  {
    "id": "48",
    "name": "富士山自然休養林",
    "lat": "35.2969444",
    "lng": "138.7161111",
    "address": "静岡県富士宮市、富士市、裾野市、御殿場市",
    "type":"森林浴"
  },
  {
    "id": "49",
    "name": "天城山自然休養林",
    "lat": "34.8558333",
    "lng": "138.9219444",
    "address": "静岡県伊豆市、河津町、東伊豆町",
    "type":"森林浴"
  },
  {
    "id": "50",
    "name": "昭和の森",
    "lat": "35.165",
    "lng": "137.1969444",
    "address": "愛知県豊田市",
    "type":"森林浴"
  },
  {
    "id": "51",
    "name": "森林公園",
    "lat": "35.2402777",
    "lng": "137.045",
    "address": "愛知県尾張旭市",
    "type":"森林浴"
  },
  {
    "id": "52",
    "name": "愛知県県民の森",
    "lat": "34.9952777",
    "lng": "137.6261111",
    "address": "愛知県新城市",
    "type":"森林浴"
  },
  {
    "id": "53",
    "name": "赤目四十八滝",
    "lat": "34.5611111",
    "lng": "136.0891666",
    "address": "三重県名張市",
    "type":"森林浴"
  },
  {
    "id": "54",
    "name": "伊勢三郷山",
    "lat": "34.4755555",
    "lng": "136.6822222",
    "address": "三重県伊勢市",
    "type":"森林浴"
  },
  {
    "id": "55",
    "name": "雨山生活環境保全林(臥竜の森)",
    "lat": "35.0019444",
    "lng": "136.0425",
    "address": "滋賀県湖南市",
    "type":"森林浴"
  },
  {
    "id": "56",
    "name": "金勝山",
    "lat": "34.9702777",
    "lng": "136.0380555",
    "address": "滋賀県栗東市",
    "type":"森林浴"
  },
  {
    "id": "57",
    "name": "くつわ池自然公園",
    "lat": "34.8583333",
    "lng": "135.8352777",
    "address": "京都府宇治田原町",
    "type":"森林浴"
  },
  {
    "id": "58",
    "name": "大江山の森",
    "lat": "35.4588888",
    "lng": "135.1447222",
    "address": "京都府福知山市",
    "type":"森林浴"
  },
  {
    "id": "59",
    "name": "箕面公園",
    "lat": "34.8425",
    "lng": "135.4697222",
    "address": "大阪府箕面市",
    "type":"森林浴"
  },
  {
    "id": "60",
    "name": "金剛山",
    "lat": "34.4194444",
    "lng": "135.6730555",
    "address": "大阪府千早赤阪村",
    "type":"森林浴"
  },
  {
    "id": "61",
    "name": "天滝渓谷",
    "lat": "35.3319444",
    "lng": "134.6205555",
    "address": "兵庫県養父市",
    "type":"森林浴"
  },
  {
    "id": "62",
    "name": "布引と再度山",
    "lat": "34.7186111",
    "lng": "135.1775",
    "address": "兵庫県神戸市",
    "type":"森林浴"
  },
  {
    "id": "63",
    "name": "大台ヶ原",
    "lat": "34.18",
    "lng": "136.0977777",
    "address": "奈良県上北山村",
    "type":"森林浴"
  },
  {
    "id": "64",
    "name": "玉置山",
    "lat": "33.9266666",
    "lng": "135.8313888",
    "address": "奈良県十津川村",
    "type":"森林浴"
  },
  {
    "id": "65",
    "name": "高田の里",
    "lat": "33.7283333",
    "lng": "135.9105555",
    "address": "和歌山県新宮市",
    "type":"森林浴"
  },
  {
    "id": "66",
    "name": "歴史の道熊野古道",
    "lat": "33.8322222",
    "lng": "135.6422222",
    "address": "和歌山県田辺市",
    "type":"森林浴"
  },
  {
    "id": "67",
    "name": "打吹山",
    "lat": "35.4263888",
    "lng": "133.8219444",
    "address": "鳥取県倉吉市",
    "type":"森林浴"
  },
  {
    "id": "68",
    "name": "三徳山",
    "lat": "35.3975",
    "lng": "133.9530555",
    "address": "鳥取県三朝町",
    "type":"森林浴"
  },
  {
    "id": "69",
    "name": "三瓶山",
    "lat": "35.1455555",
    "lng": "132.6244444",
    "address": "島根県大田市",
    "type":"森林浴"
  },
  {
    "id": "70",
    "name": "ふれあいの里奥出雲公園",
    "lat": "35.1488888",
    "lng": "132.7144444",
    "address": "島根県雲南市",
    "type":"森林浴"
  },
  {
    "id": "71",
    "name": "岡山県立森林公園",
    "lat": "35.2861111",
    "lng": "133.8736111",
    "address": "岡山県鏡野町",
    "type":"森林浴"
  },
  {
    "id": "72",
    "name": "西栗倉村若杉天然林",
    "lat": "35.2419444",
    "lng": "134.3872222",
    "address": "岡山県西粟倉村",
    "type":"森林浴"
  },
  {
    "id": "73",
    "name": "三段峡",
    "lat": "34.6280555",
    "lng": "132.1866666",
    "address": "広島県安芸太田町、北広島町",
    "type":"森林浴"
  },
  {
    "id": "74",
    "name": "もみの木森林公園",
    "lat": "34.4819444",
    "lng": "132.1769444",
    "address": "広島県廿日市市",
    "type":"森林浴"
  },
  {
    "id": "75",
    "name": "室積・虹ヶ浜海岸松林",
    "lat": "33.9411111",
    "lng": "131.9652777",
    "address": "山口県光市",
    "type":"森林浴"
  },
  {
    "id": "76",
    "name": "長門峡",
    "lat": "34.3191666",
    "lng": "131.5675",
    "address": "山口県阿東町",
    "type":"森林浴"
  },
  {
    "id": "77",
    "name": "徳島県立青少年の森",
    "lat": "33.835",
    "lng": "134.5108333",
    "address": "徳島県那賀町",
    "type":"森林浴"
  },
  {
    "id": "78",
    "name": "大川原生活環境保全林",
    "lat": "33.9547222",
    "lng": "134.4111111",
    "address": "徳島県佐那河内村、上勝町",
    "type":"森林浴"
  },
  {
    "id": "79",
    "name": "紫雲出山頂園地",
    "lat": "34.2436111",
    "lng": "133.5952777",
    "address": "香川県三豊市",
    "type":"森林浴"
  },
  {
    "id": "80",
    "name": "石清尾山塊",
    "lat": "34.3369444",
    "lng": "134.0227777",
    "address": "香川県高松市",
    "type":"森林浴"
  },
  {
    "id": "81",
    "name": "滝沢寺緑地公園",
    "lat": "33.3602777",
    "lng": "132.7088888",
    "address": "愛媛県西予市",
    "type":"森林浴"
  },
  {
    "id": "82",
    "name": "諏訪崎自然休養林",
    "lat": "33.4436111",
    "lng": "132.3991666",
    "address": "愛媛県八幡浜市",
    "type":"森林浴"
  },
  {
    "id": "83",
    "name": "足摺岬自然休養林",
    "lat": "32.7261111",
    "lng": "133.0097222",
    "address": "高知県土佐清水市、大月町",
    "type":"森林浴"
  },
  {
    "id": "84",
    "name": "天狗高原自然休養村",
    "lat": "33.4769444",
    "lng": "133.0041666",
    "address": "高知県津野町",
    "type":"森林浴"
  },
  {
    "id": "85",
    "name": "英彦山",
    "lat": "33.4761111",
    "lng": "130.9261111",
    "address": "福岡県添田町",
    "type":"森林浴"
  },
  {
    "id": "86",
    "name": "足立公園",
    "lat": "33.8680555",
    "lng": "130.9044444",
    "address": "福岡県北九州市",
    "type":"森林浴"
  },
  {
    "id": "87",
    "name": "虹の松原",
    "lat": "33.4461111",
    "lng": "129.9955555",
    "address": "佐賀県唐津市",
    "type":"森林浴"
  },
  {
    "id": "88",
    "name": "猪掘の滝",
    "lat": "33.4158333",
    "lng": "130.0863888",
    "address": "佐賀県唐津市",
    "type":"森林浴"
  },
  {
    "id": "89",
    "name": "上山公園",
    "lat": "32.8402777",
    "lng": "130.0438888",
    "address": "長崎県諫早市",
    "type":"森林浴"
  },
  {
    "id": "90",
    "name": "雲仙あざみ谷",
    "lat": "32.7575",
    "lng": "130.2888888",
    "address": "長崎県雲仙市",
    "type":"森林浴"
  },
  {
    "id": "91",
    "name": "くまもと自然休養林菊池渓谷",
    "lat": "32.9975",
    "lng": "130.9627777",
    "address": "熊本県菊池市",
    "type":"森林浴"
  },
  {
    "id": "92",
    "name": "端海野森林公園",
    "lat": "32.4875",
    "lng": "130.8013888",
    "address": "熊本県五木村",
    "type":"森林浴"
  },
  {
    "id": "93",
    "name": "国東半島両子山遊歩道",
    "lat": "33.5763888",
    "lng": "131.6022222",
    "address": "大分県国東市",
    "type":"森林浴"
  },
  {
    "id": "94",
    "name": "祖母山麓川上渓谷",
    "lat": "32.8222222",
    "lng": "131.3875",
    "address": "大分県豊後大野市",
    "type":"森林浴"
  },
  {
    "id": "95",
    "name": "えびの高原池めぐりの森",
    "lat": "31.9552777",
    "lng": "130.8436111",
    "address": "宮崎県えびの市",
    "type":"森林浴"
  },
  {
    "id": "96",
    "name": "九州中央山地国定公園綾地区",
    "lat": "32.0297222",
    "lng": "131.195",
    "address": "宮崎県綾町",
    "type":"森林浴"
  },
  {
    "id": "97",
    "name": "十曾渓谷",
    "lat": "32.1305555",
    "lng": "130.6361111",
    "address": "鹿児島県伊佐市",
    "type":"森林浴"
  },
  {
    "id": "98",
    "name": "屋久杉林",
    "lat": "30.3088888",
    "lng": "130.6311111",
    "address": "鹿児島県屋久島町",
    "type":"森林浴"
  },
  {
    "id": "99",
    "name": "沖縄県立少年自然の家の森",
    "lat": "26.4458333",
    "lng": "127.835",
    "address": "沖縄県うるま市",
    "type":"森林浴"
  },
  {
    "id": "100",
    "name": "西表自然休養林",
    "lat": "24.3563888",
    "lng": "123.805",
    "address": "沖縄県竹富町",
    "type":"森林浴"
  }
]
