[
  {
    "id": "1",
    "name": "根室半島チャシ跡群",
    "lat": "43.3827777",
    "lng": "145.8141666",
    "address": "北海道根室市",
    "type":"城"
  },
  {
    "id": "2",
    "name": "五稜郭",
    "lat": "41.7972222",
    "lng": "140.7569444",
    "address": "北海道函館市",
    "type":"城"
  },
  {
    "id": "3",
    "name": "松前城（福山城）",
    "lat": "41.4297222",
    "lng": "140.1083333",
    "address": "北海道松前町",
    "type":"城"
  },
  {
    "id": "4",
    "name": "弘前城",
    "lat": "40.6075",
    "lng": "140.4638888",
    "address": "青森県弘前市",
    "type":"城"
  },
  {
    "id": "5",
    "name": "根城",
    "lat": "40.5061111",
    "lng": "141.4605555",
    "address": "青森県八戸市",
    "type":"城"
  },
  {
    "id": "6",
    "name": "盛岡城",
    "lat": "39.7005555",
    "lng": "141.15",
    "address": "岩手県盛岡市",
    "type":"城"
  },
  {
    "id": "7",
    "name": "多賀城",
    "lat": "38.3066666",
    "lng": "140.9883333",
    "address": "宮城県多賀城市",
    "type":"城"
  },
  {
    "id": "8",
    "name": "仙台城（青葉城）",
    "lat": "38.2530555",
    "lng": "140.8555555",
    "address": "宮城県仙台市",
    "type":"城"
  },
  {
    "id": "9",
    "name": "久保田城",
    "lat": "39.7227777",
    "lng": "140.1236111",
    "address": "秋田県秋田市",
    "type":"城"
  },
  {
    "id": "10",
    "name": "山形城",
    "lat": "38.2555555",
    "lng": "140.3283333",
    "address": "山形県山形市",
    "type":"城"
  },
  {
    "id": "11",
    "name": "二本松城（霞ヶ城）",
    "lat": "37.5994444",
    "lng": "140.4277777",
    "address": "福島県二本松市",
    "type":"城"
  },
  {
    "id": "12",
    "name": "会津若松城",
    "lat": "37.4875",
    "lng": "139.9297222",
    "address": "福島県会津若松市",
    "type":"城"
  },
  {
    "id": "13",
    "name": "白河小峰城",
    "lat": "37.1325",
    "lng": "140.2133333",
    "address": "福島県白河市",
    "type":"城"
  },
  {
    "id": "14",
    "name": "水戸城",
    "lat": "36.3752777",
    "lng": "140.4769444",
    "address": "茨城県水戸市",
    "type":"城"
  },
  {
    "id": "15",
    "name": "足利氏館(鑁阿寺)",
    "lat": "36.3375",
    "lng": "139.4522222",
    "address": "栃木県足利市",
    "type":"城"
  },
  {
    "id": "16",
    "name": "箕輪城",
    "lat": "36.405",
    "lng": "138.9508333",
    "address": "群馬県高崎市",
    "type":"城"
  },
  {
    "id": "17",
    "name": "金山城",
    "lat": "36.3169444",
    "lng": "139.3777777",
    "address": "群馬県太田市",
    "type":"城"
  },
  {
    "id": "18",
    "name": "鉢形城",
    "lat": "36.1091666",
    "lng": "139.1958333",
    "address": "埼玉県寄居町",
    "type":"城"
  },
  {
    "id": "19",
    "name": "川越城",
    "lat": "35.9247222",
    "lng": "139.4913888",
    "address": "埼玉県川越市",
    "type":"城"
  },
  {
    "id": "20",
    "name": "佐倉城",
    "lat": "35.7222222",
    "lng": "140.2158333",
    "address": "千葉県佐倉市",
    "type":"城"
  },
  {
    "id": "21",
    "name": "江戸城",
    "lat": "35.6872222",
    "lng": "139.7552777",
    "address": "東京都千代田区",
    "type":"城"
  },
  {
    "id": "22",
    "name": "八王子城",
    "lat": "35.6530555",
    "lng": "139.2527777",
    "address": "東京都八王子市",
    "type":"城"
  },
  {
    "id": "23",
    "name": "小田原城",
    "lat": "35.2513888",
    "lng": "139.1536111",
    "address": "神奈川県小田原市",
    "type":"城"
  },
  {
    "id": "24",
    "name": "武田氏館(武田神社)",
    "lat": "35.6866666",
    "lng": "138.5766666",
    "address": "山梨県甲府市",
    "type":"城"
  },
  {
    "id": "25",
    "name": "甲府城",
    "lat": "35.6652777",
    "lng": "138.5713888",
    "address": "山梨県甲府市",
    "type":"城"
  },
  {
    "id": "26",
    "name": "松代城",
    "lat": "36.5658333",
    "lng": "138.1958333",
    "address": "長野県長野市",
    "type":"城"
  },
  {
    "id": "27",
    "name": "上田城",
    "lat": "36.4036111",
    "lng": "138.2444444",
    "address": "長野県上田市",
    "type":"城"
  },
  {
    "id": "28",
    "name": "小諸城",
    "lat": "36.3269444",
    "lng": "138.4169444",
    "address": "長野県小諸市",
    "type":"城"
  },
  {
    "id": "29",
    "name": "松本城",
    "lat": "36.2386111",
    "lng": "137.9688888",
    "address": "長野県松本市",
    "type":"城"
  },
  {
    "id": "30",
    "name": "高遠城",
    "lat": "35.8327777",
    "lng": "138.0625",
    "address": "長野県伊那市",
    "type":"城"
  },
  {
    "id": "31",
    "name": "新発田城",
    "lat": "37.9552777",
    "lng": "139.3252777",
    "address": "新潟県新発田市",
    "type":"城"
  },
  {
    "id": "32",
    "name": "春日山城",
    "lat": "37.1466666",
    "lng": "138.2055555",
    "address": "新潟県上越市",
    "type":"城"
  },
  {
    "id": "33",
    "name": "高岡城",
    "lat": "36.7491666",
    "lng": "137.0208333",
    "address": "富山県高岡市",
    "type":"城"
  },
  {
    "id": "34",
    "name": "七尾城",
    "lat": "37.0086111",
    "lng": "136.9838888",
    "address": "石川県七尾市",
    "type":"城"
  },
  {
    "id": "35",
    "name": "金沢城",
    "lat": "36.5636111",
    "lng": "136.6594444",
    "address": "石川県金沢市",
    "type":"城"
  },
  {
    "id": "36",
    "name": "丸岡城",
    "lat": "36.1519444",
    "lng": "136.2722222",
    "address": "福井県坂井市",
    "type":"城"
  },
  {
    "id": "37",
    "name": "一乗谷城",
    "lat": "35.9958333",
    "lng": "136.3080555",
    "address": "福井県福井市",
    "type":"城"
  },
  {
    "id": "38",
    "name": "岩村城",
    "lat": "35.3597222",
    "lng": "137.4511111",
    "address": "岐阜県恵那市",
    "type":"城"
  },
  {
    "id": "39",
    "name": "岐阜城",
    "lat": "35.4338888",
    "lng": "136.7822222",
    "address": "岐阜県岐阜市",
    "type":"城"
  },
  {
    "id": "40",
    "name": "山中城",
    "lat": "35.1561111",
    "lng": "138.9919444",
    "address": "静岡県三島市",
    "type":"城"
  },
  {
    "id": "41",
    "name": "駿府城",
    "lat": "34.9791666",
    "lng": "138.3830555",
    "address": "静岡県静岡市",
    "type":"城"
  },
  {
    "id": "42",
    "name": "掛川城",
    "lat": "34.775",
    "lng": "138.0138888",
    "address": "静岡県掛川市",
    "type":"城"
  },
  {
    "id": "43",
    "name": "犬山城",
    "lat": "35.3883333",
    "lng": "136.9391666",
    "address": "愛知県犬山市",
    "type":"城"
  },
  {
    "id": "44",
    "name": "名古屋城",
    "lat": "35.1858333",
    "lng": "136.8994444",
    "address": "愛知県名古屋市",
    "type":"城"
  },
  {
    "id": "45",
    "name": "岡崎城",
    "lat": "34.9561111",
    "lng": "137.1588888",
    "address": "愛知県岡崎市",
    "type":"城"
  },
  {
    "id": "46",
    "name": "長篠城",
    "lat": "34.9227777",
    "lng": "137.5597222",
    "address": "愛知県新城市",
    "type":"城"
  },
  {
    "id": "47",
    "name": "伊賀上野城",
    "lat": "34.77",
    "lng": "136.1272222",
    "address": "三重県伊賀市",
    "type":"城"
  },
  {
    "id": "48",
    "name": "松阪城",
    "lat": "34.5758333",
    "lng": "136.5255555",
    "address": "三重県松阪市",
    "type":"城"
  },
  {
    "id": "49",
    "name": "小谷城",
    "lat": "35.4588888",
    "lng": "136.2763888",
    "address": "滋賀県長浜市",
    "type":"城"
  },
  {
    "id": "50",
    "name": "彦根城",
    "lat": "35.2763888",
    "lng": "136.2516666",
    "address": "滋賀県彦根市",
    "type":"城"
  },
  {
    "id": "51",
    "name": "安土城",
    "lat": "35.1558333",
    "lng": "136.1391666",
    "address": "滋賀県近江八幡市",
    "type":"城"
  },
  {
    "id": "52",
    "name": "観音寺城",
    "lat": "35.1458333",
    "lng": "136.1577777",
    "address": "滋賀県近江八幡市",
    "type":"城"
  },
  {
    "id": "53",
    "name": "二条城",
    "lat": "35.0141666",
    "lng": "135.7477777",
    "address": "京都府京都市",
    "type":"城"
  },
  {
    "id": "54",
    "name": "大阪城",
    "lat": "34.6875",
    "lng": "135.5258333",
    "address": "大阪府大阪市",
    "type":"城"
  },
  {
    "id": "55",
    "name": "千早城",
    "lat": "34.4169444",
    "lng": "135.6513888",
    "address": "大阪府千早赤阪村",
    "type":"城"
  },
  {
    "id": "56",
    "name": "竹田城",
    "lat": "35.3",
    "lng": "134.8288888",
    "address": "兵庫県朝来市",
    "type":"城"
  },
  {
    "id": "57",
    "name": "篠山城",
    "lat": "35.0730555",
    "lng": "135.2175",
    "address": "兵庫県篠山市",
    "type":"城"
  },
  {
    "id": "58",
    "name": "明石城",
    "lat": "34.6525",
    "lng": "134.9916666",
    "address": "兵庫県明石市",
    "type":"城"
  },
  {
    "id": "59",
    "name": "姫路城",
    "lat": "34.8394444",
    "lng": "134.6938888",
    "address": "兵庫県姫路市",
    "type":"城"
  },
  {
    "id": "60",
    "name": "赤穂城",
    "lat": "34.7458333",
    "lng": "134.3891666",
    "address": "兵庫県赤穂市",
    "type":"城"
  },
  {
    "id": "61",
    "name": "高取城",
    "lat": "34.4291666",
    "lng": "135.8275",
    "address": "奈良県高取町",
    "type":"城"
  },
  {
    "id": "62",
    "name": "和歌山城",
    "lat": "34.2275",
    "lng": "135.1713888",
    "address": "和歌山県和歌山市",
    "type":"城"
  },
  {
    "id": "63",
    "name": "鳥取城",
    "lat": "35.51",
    "lng": "134.2411111",
    "address": "鳥取県鳥取市",
    "type":"城"
  },
  {
    "id": "64",
    "name": "松江城",
    "lat": "35.475",
    "lng": "133.0505555",
    "address": "島根県松江市",
    "type":"城"
  },
  {
    "id": "65",
    "name": "月山富田城",
    "lat": "35.3608333",
    "lng": "133.1847222",
    "address": "島根県安来市",
    "type":"城"
  },
  {
    "id": "66",
    "name": "津和野城",
    "lat": "34.46",
    "lng": "131.7641666",
    "address": "島根県津和野町",
    "type":"城"
  },
  {
    "id": "67",
    "name": "津山城",
    "lat": "35.0627777",
    "lng": "134.005",
    "address": "岡山県津山市",
    "type":"城"
  },
  {
    "id": "68",
    "name": "備中松山城",
    "lat": "34.8088888",
    "lng": "133.6219444",
    "address": "岡山県高梁市",
    "type":"城"
  },
  {
    "id": "69",
    "name": "鬼ノ城",
    "lat": "34.7275",
    "lng": "133.7677777",
    "address": "岡山県総社市",
    "type":"城"
  },
  {
    "id": "70",
    "name": "岡山城",
    "lat": "34.665",
    "lng": "133.9361111",
    "address": "岡山県岡山市",
    "type":"城"
  },
  {
    "id": "71",
    "name": "福山城",
    "lat": "34.4908333",
    "lng": "133.3611111",
    "address": "広島県福山市",
    "type":"城"
  },
  {
    "id": "72",
    "name": "郡山城",
    "lat": "34.6736111",
    "lng": "132.7094444",
    "address": "広島県安芸高田市",
    "type":"城"
  },
  {
    "id": "73",
    "name": "広島城",
    "lat": "34.4025",
    "lng": "132.4591666",
    "address": "広島県広島市",
    "type":"城"
  },
  {
    "id": "74",
    "name": "岩国城",
    "lat": "34.1752777",
    "lng": "132.1741666",
    "address": "山口県岩国市",
    "type":"城"
  },
  {
    "id": "75",
    "name": "萩城",
    "lat": "34.4213888",
    "lng": "131.3813888",
    "address": "山口県萩市",
    "type":"城"
  },
  {
    "id": "76",
    "name": "徳島城",
    "lat": "34.0752777",
    "lng": "134.555",
    "address": "徳島県徳島市",
    "type":"城"
  },
  {
    "id": "77",
    "name": "高松城",
    "lat": "34.3502777",
    "lng": "134.0516666",
    "address": "香川県高松市",
    "type":"城"
  },
  {
    "id": "78",
    "name": "丸亀城",
    "lat": "34.2861111",
    "lng": "133.8005555",
    "address": "香川県丸亀市",
    "type":"城"
  },
  {
    "id": "79",
    "name": "今治城",
    "lat": "34.0633333",
    "lng": "133.0069444",
    "address": "愛媛県今治市",
    "type":"城"
  },
  {
    "id": "80",
    "name": "湯築城",
    "lat": "33.8486111",
    "lng": "132.7863888",
    "address": "愛媛県松山市",
    "type":"城"
  },
  {
    "id": "81",
    "name": "松山城",
    "lat": "33.8455555",
    "lng": "132.7655555",
    "address": "愛媛県松山市",
    "type":"城"
  },
  {
    "id": "82",
    "name": "大洲城",
    "lat": "33.5094444",
    "lng": "132.5411111",
    "address": "愛媛県大洲市",
    "type":"城"
  },
  {
    "id": "83",
    "name": "宇和島城",
    "lat": "33.2191666",
    "lng": "132.565",
    "address": "愛媛県宇和島市",
    "type":"城"
  },
  {
    "id": "84",
    "name": "高知城",
    "lat": "33.5608333",
    "lng": "133.5311111",
    "address": "高知県高知市",
    "type":"城"
  },
  {
    "id": "85",
    "name": "福岡城",
    "lat": "33.5847222",
    "lng": "130.3830555",
    "address": "福岡県福岡市",
    "type":"城"
  },
  {
    "id": "86",
    "name": "大野城",
    "lat": "33.5397222",
    "lng": "130.5230555",
    "address": "福岡県大野城市",
    "type":"城"
  },
  {
    "id": "87",
    "name": "名護屋城",
    "lat": "33.5302777",
    "lng": "129.8691666",
    "address": "佐賀県唐津市",
    "type":"城"
  },
  {
    "id": "88",
    "name": "吉野ヶ里",
    "lat": "33.3247222",
    "lng": "130.3833333",
    "address": "佐賀県吉野ヶ里町",
    "type":"城"
  },
  {
    "id": "89",
    "name": "佐賀城",
    "lat": "33.2452777",
    "lng": "130.3027777",
    "address": "佐賀県佐賀市",
    "type":"城"
  },
  {
    "id": "90",
    "name": "平戸城",
    "lat": "33.3683333",
    "lng": "129.5575",
    "address": "長崎県平戸市",
    "type":"城"
  },
  {
    "id": "91",
    "name": "島原城",
    "lat": "32.7891666",
    "lng": "130.3672222",
    "address": "長崎県島原市",
    "type":"城"
  },
  {
    "id": "92",
    "name": "熊本城",
    "lat": "32.8061111",
    "lng": "130.7058333",
    "address": "熊本県熊本市",
    "type":"城"
  },
  {
    "id": "93",
    "name": "人吉城",
    "lat": "32.2111111",
    "lng": "130.7663888",
    "address": "熊本県人吉市",
    "type":"城"
  },
  {
    "id": "94",
    "name": "大分府内城",
    "lat": "33.2405555",
    "lng": "131.6113888",
    "address": "大分県大分市",
    "type":"城"
  },
  {
    "id": "95",
    "name": "岡城",
    "lat": "32.9691666",
    "lng": "131.4077777",
    "address": "大分県竹田市",
    "type":"城"
  },
  {
    "id": "96",
    "name": "飫肥城",
    "lat": "31.6288888",
    "lng": "131.35",
    "address": "宮崎県日南市",
    "type":"城"
  },
  {
    "id": "97",
    "name": "鹿児島城(黎明館)",
    "lat": "31.5986111",
    "lng": "130.5547222",
    "address": "鹿児島県鹿児島市",
    "type":"城"
  },
  {
    "id": "98",
    "name": "今帰仁城",
    "lat": "26.6911111",
    "lng": "127.9297222",
    "address": "沖縄県今帰仁村",
    "type":"城"
  },
  {
    "id": "99",
    "name": "中城城",
    "lat": "26.2838888",
    "lng": "127.8011111",
    "address": "沖縄県中城村",
    "type":"城"
  },
  {
    "id": "100",
    "name": "首里城",
    "lat": "26.2169444",
    "lng": "127.7194444",
    "address": "沖縄県那覇市",
    "type":"城"
  }
]
