[
  {
    "id": "1",
    "name": "羽衣の滝",
    "lat": "43.6263888",
    "lng": "142.7863888",
    "address": "北海道東川町",
    "type":"滝"

  },
  {
    "id": "2",
    "name": "インクラの滝",
    "lat": "42.6363888",
    "lng": "141.3344444",
    "address": "北海道白老町",
    "type":"滝"

  },
  {
    "id": "3",
    "name": "飛龍賀老の滝",
    "lat": "42.5994444",
    "lng": "139.9927777",
    "address": "北海道島牧村",
    "type":"滝"

  },
  {
    "id": "4",
    "name": "流星の滝・銀河の滝",
    "lat": "43.7166666",
    "lng": "142.9747222",
    "address": "北海道上川町",
    "type":"滝"

  },
  {
    "id": "5",
    "name": "アシリベツの滝",
    "lat": "42.9188888",
    "lng": "141.3722222",
    "address": "北海道札幌市",
    "type":"滝"

  },
  {
    "id": "6",
    "name": "オシンコシンの滝",
    "lat": "44.0380555",
    "lng": "144.9355555",
    "address": "北海道斜里町",
    "type":"滝"

  },
  {
    "id": "7",
    "name": "くろくまの滝",
    "lat": "40.6288888",
    "lng": "140.1116666",
    "address": "青森県鯵ケ沢町",
    "type":"滝"

  },
  {
    "id": "8",
    "name": "松見の滝",
    "lat": "40.5583333",
    "lng": "140.9063888",
    "address": "青森県十和田市",
    "type":"滝"

  },
  {
    "id": "9",
    "name": "不動の滝",
    "lat": "40.0647222",
    "lng": "141.0608333",
    "address": "岩手県八幡平市",
    "type":"滝"

  },
  {
    "id": "10",
    "name": "七滝",
    "lat": "40.3555555",
    "lng": "140.7836111",
    "address": "秋田県小坂町",
    "type":"滝"

  },
  {
    "id": "11",
    "name": "茶釜の滝",
    "lat": "40.0113888",
    "lng": "140.7405555",
    "address": "秋田県鹿角市",
    "type":"滝"

  },
  {
    "id": "12",
    "name": "法体の滝",
    "lat": "39.1077777",
    "lng": "140.1591666",
    "address": "秋田県由利本荘市",
    "type":"滝"

  },
  {
    "id": "13",
    "name": "安の滝",
    "lat": "39.9441666",
    "lng": "140.6136111",
    "address": "秋田県北秋田市",
    "type":"滝"

  },
  {
    "id": "14",
    "name": "秋保大滝",
    "lat": "38.2747222",
    "lng": "140.6027777",
    "address": "宮城県仙台市",
    "type":"滝"

  },
  {
    "id": "15",
    "name": "三階の滝",
    "lat": "38.1305555",
    "lng": "140.5227777",
    "address": "宮城県蔵王町",
    "type":"滝"

  },
  {
    "id": "16",
    "name": "滑川の大滝",
    "lat": "37.7786111",
    "lng": "140.2208333",
    "address": "山形県米沢市",
    "type":"滝"

  },
  {
    "id": "17",
    "name": "白糸の滝",
    "lat": "38.7675",
    "lng": "140.0566666",
    "address": "山形県戸沢村",
    "type":"滝"

  },
  {
    "id": "18",
    "name": "七ツ滝",
    "lat": "38.5633333",
    "lng": "139.9211111",
    "address": "山形県鶴岡市",
    "type":"滝"

  },
  {
    "id": "19",
    "name": "乙字ヶ滝",
    "lat": "37.2477777",
    "lng": "140.3913888",
    "address": "福島県須賀川市・玉川村",
    "type":"滝"

  },
  {
    "id": "20",
    "name": "三条の滝",
    "lat": "36.9655555",
    "lng": "139.2502777",
    "address": "福島県檜枝岐村",
    "type":"滝"

  },
  {
    "id": "21",
    "name": "銚子ヶ滝",
    "lat": "37.5838888",
    "lng": "140.2644444",
    "address": "福島県郡山市",
    "type":"滝"

  },
  {
    "id": "22",
    "name": "袋田の滝",
    "lat": "36.7644444",
    "lng": "140.4069444",
    "address": "茨城県大子町",
    "type":"滝"

  },
  {
    "id": "23",
    "name": "華厳の滝",
    "lat": "36.7377777",
    "lng": "139.5016666",
    "address": "栃木県日光市",
    "type":"滝"

  },
  {
    "id": "24",
    "name": "霧降の滝",
    "lat": "36.78",
    "lng": "139.6238888",
    "address": "栃木県日光市",
    "type":"滝"

  },
  {
    "id": "25",
    "name": "吹割の滝",
    "lat": "36.7019444",
    "lng": "139.2072222",
    "address": "群馬県沼田市",
    "type":"滝"

  },
  {
    "id": "26",
    "name": "常布の滝",
    "lat": "36.6422222",
    "lng": "138.5683333",
    "address": "群馬県草津町",
    "type":"滝"

  },
  {
    "id": "27",
    "name": "棚下不動滝",
    "lat": "36.5716666",
    "lng": "139.0597222",
    "address": "群馬県渋川市",
    "type":"滝"

  },
  {
    "id": "28",
    "name": "丸神の滝",
    "lat": "35.9911111",
    "lng": "138.8819444",
    "address": "埼玉県小鹿野町",
    "type":"滝"

  },
  {
    "id": "29",
    "name": "払沢の滝",
    "lat": "35.7272222",
    "lng": "139.1388888",
    "address": "東京都檜原村",
    "type":"滝"

  },
  {
    "id": "30",
    "name": "早戸大滝",
    "lat": "35.4880555",
    "lng": "139.1605555",
    "address": "神奈川県相模原市",
    "type":"滝"

  },
  {
    "id": "31",
    "name": "洒水の滝",
    "lat": "35.3522222",
    "lng": "139.0613888",
    "address": "神奈川県山北町",
    "type":"滝"

  },
  {
    "id": "32",
    "name": "七ツ釜五段の滝",
    "lat": "35.8644444",
    "lng": "138.7316666",
    "address": "山梨県山梨市",
    "type":"滝"

  },
  {
    "id": "33",
    "name": "精進ヶ滝",
    "lat": "35.7291666",
    "lng": "138.3255555",
    "address": "山梨県北杜市",
    "type":"滝"

  },
  {
    "id": "34",
    "name": "仙娥滝",
    "lat": "35.7497222",
    "lng": "138.5661111",
    "address": "山梨県甲府市",
    "type":"滝"

  },
  {
    "id": "35",
    "name": "米子大瀑布",
    "lat": "36.5677777",
    "lng": "138.4038888",
    "address": "長野県須坂市",
    "type":"滝"

  },
  {
    "id": "36",
    "name": "三本滝",
    "lat": "36.1183333",
    "lng": "137.5930555",
    "address": "長野県松本市",
    "type":"滝"

  },
  {
    "id": "37",
    "name": "田立の滝",
    "lat": "35.6302777",
    "lng": "137.5466666",
    "address": "長野県南木曽町",
    "type":"滝"

  },
  {
    "id": "38",
    "name": "鈴ヶ滝",
    "lat": "38.3438888",
    "lng": "139.665",
    "address": "新潟県村上市",
    "type":"滝"

  },
  {
    "id": "39",
    "name": "苗名滝",
    "lat": "36.8502777",
    "lng": "138.1327777",
    "address": "新潟県妙高市",
    "type":"滝"

  },
  {
    "id": "40",
    "name": "惣滝",
    "lat": "36.905",
    "lng": "138.1369444",
    "address": "新潟県妙高市",
    "type":"滝"

  },
  {
    "id": "41",
    "name": "称名滝",
    "lat": "36.5752777",
    "lng": "137.5233333",
    "address": "富山県立山町",
    "type":"滝"

  },
  {
    "id": "42",
    "name": "姥ヶ滝",
    "lat": "36.2547222",
    "lng": "136.7983333",
    "address": "石川県白山市",
    "type":"滝"

  },
  {
    "id": "43",
    "name": "龍双ヶ滝",
    "lat": "35.9233333",
    "lng": "136.4225",
    "address": "福井県池田町",
    "type":"滝"

  },
  {
    "id": "44",
    "name": "根尾の滝",
    "lat": "35.9327777",
    "lng": "137.3711111",
    "address": "岐阜県下呂市",
    "type":"滝"

  },
  {
    "id": "45",
    "name": "平湯大滝",
    "lat": "36.1769444",
    "lng": "137.5594444",
    "address": "岐阜県高山市",
    "type":"滝"

  },
  {
    "id": "46",
    "name": "養老の滝",
    "lat": "35.2802777",
    "lng": "136.5341666",
    "address": "岐阜県養老町",
    "type":"滝"

  },
  {
    "id": "47",
    "name": "阿弥陀ヶ滝",
    "lat": "35.9597222",
    "lng": "136.8175",
    "address": "岐阜県郡上市",
    "type":"滝"

  },
  {
    "id": "48",
    "name": "安倍の大滝",
    "lat": "35.3",
    "lng": "138.3516666",
    "address": "静岡県静岡市",
    "type":"滝"

  },
  {
    "id": "49",
    "name": "浄連の滝",
    "lat": "34.8716666",
    "lng": "138.9219444",
    "address": "静岡県伊豆市",
    "type":"滝"

  },
  {
    "id": "50",
    "name": "白糸の滝・音止の滝",
    "lat": "35.3130555",
    "lng": "138.5872222",
    "address": "静岡県富士宮市",
    "type":"滝"

  },
  {
    "id": "51",
    "name": "阿寺の七滝",
    "lat": "34.9502777",
    "lng": "137.6455555",
    "address": "愛知県新城市",
    "type":"滝"

  },
  {
    "id": "52",
    "name": "布引の滝",
    "lat": "34.6822222",
    "lng": "136.2958333",
    "address": "三重県熊野市",
    "type":"滝"

  },
  {
    "id": "53",
    "name": "赤目四十八滝",
    "lat": "34.5611111",
    "lng": "136.0891666",
    "address": "三重県名張市",
    "type":"滝"

  },
  {
    "id": "54",
    "name": "七ツ釜滝",
    "lat": "34.2091666",
    "lng": "136.1525",
    "address": "三重県大台町",
    "type":"滝"

  },
  {
    "id": "55",
    "name": "八ツ淵の滝",
    "lat": "35.2697222",
    "lng": "135.9188888",
    "address": "滋賀県高島市",
    "type":"滝"

  },
  {
    "id": "56",
    "name": "金引の滝",
    "lat": "35.5294444",
    "lng": "135.1825",
    "address": "京都府宮津市",
    "type":"滝"

  },
  {
    "id": "57",
    "name": "箕面大滝",
    "lat": "34.8536111",
    "lng": "135.4716666",
    "address": "大阪府箕面市",
    "type":"滝"

  },
  {
    "id": "58",
    "name": "原不動滝",
    "lat": "35.1983333",
    "lng": "134.5011111",
    "address": "兵庫県宍粟市",
    "type":"滝"

  },
  {
    "id": "59",
    "name": "猿尾滝",
    "lat": "35.4341666",
    "lng": "134.6147222",
    "address": "兵庫県香美町",
    "type":"滝"

  },
  {
    "id": "60",
    "name": "天滝",
    "lat": "35.3352777",
    "lng": "134.6077777",
    "address": "兵庫県養父市",
    "type":"滝"

  },
  {
    "id": "61",
    "name": "布引の滝",
    "lat": "34.71",
    "lng": "135.1936111",
    "address": "兵庫県神戸市",
    "type":"滝"

  },
  {
    "id": "62",
    "name": "双門の滝",
    "lat": "34.1988888",
    "lng": "135.8922222",
    "address": "奈良県天川村",
    "type":"滝"

  },
  {
    "id": "63",
    "name": "不動七重滝",
    "lat": "34.0961111",
    "lng": "135.9538888",
    "address": "奈良県下北山村",
    "type":"滝"

  },
  {
    "id": "64",
    "name": "笹の滝",
    "lat": "34.0602777",
    "lng": "135.8591666",
    "address": "奈良県十津川村",
    "type":"滝"

  },
  {
    "id": "65",
    "name": "中の滝",
    "lat": "34.1833333",
    "lng": "136.0805555",
    "address": "奈良県上北山村",
    "type":"滝"

  },
  {
    "id": "66",
    "name": "那智の滝",
    "lat": "33.6752777",
    "lng": "135.8875",
    "address": "和歌山県那智勝浦町",
    "type":"滝"

  },
  {
    "id": "67",
    "name": "桑ノ木の滝",
    "lat": "33.7277777",
    "lng": "135.9330555",
    "address": "和歌山県新宮市",
    "type":"滝"

  },
  {
    "id": "68",
    "name": "八草の滝",
    "lat": "33.6458333",
    "lng": "135.4786111",
    "address": "和歌山県白浜町",
    "type":"滝"

  },
  {
    "id": "69",
    "name": "大山滝",
    "lat": "35.3747222",
    "lng": "133.595",
    "address": "鳥取県琴浦町",
    "type":"滝"

  },
  {
    "id": "70",
    "name": "雨滝",
    "lat": "35.4780555",
    "lng": "134.4044444",
    "address": "鳥取県鳥取市",
    "type":"滝"

  },
  {
    "id": "71",
    "name": "壇鏡の滝",
    "lat": "36.2405555",
    "lng": "133.2361111",
    "address": "島根県隠岐の島町",
    "type":"滝"

  },
  {
    "id": "72",
    "name": "八重滝・竜頭が滝",
    "lat": "35.1533333",
    "lng": "132.81",
    "address": "島根県雲南市",
    "type":"滝"

  },
  {
    "id": "73",
    "name": "神庭の滝",
    "lat": "35.1183333",
    "lng": "133.6786111",
    "address": "岡山県真庭市",
    "type":"滝"

  },
  {
    "id": "74",
    "name": "常清滝",
    "lat": "34.8630555",
    "lng": "132.7261111",
    "address": "広島県三次市",
    "type":"滝"

  },
  {
    "id": "75",
    "name": "寂地峡五竜の滝",
    "lat": "34.43",
    "lng": "132.0547222",
    "address": "山口県岩国市",
    "type":"滝"

  },
  {
    "id": "76",
    "name": "大釜の滝",
    "lat": "33.8816666",
    "lng": "134.2822222",
    "address": "徳島県那賀町",
    "type":"滝"

  },
  {
    "id": "77",
    "name": "轟九十九滝",
    "lat": "33.7",
    "lng": "134.2538888",
    "address": "徳島県海陽町",
    "type":"滝"

  },
  {
    "id": "78",
    "name": "雨乞の滝",
    "lat": "33.9502777",
    "lng": "134.3352777",
    "address": "徳島県神山町",
    "type":"滝"

  },
  {
    "id": "79",
    "name": "雪輪の滝",
    "lat": "33.1997222",
    "lng": "132.6477777",
    "address": "愛媛県松野町",
    "type":"滝"

  },
  {
    "id": "80",
    "name": "御来光の滝",
    "lat": "33.76",
    "lng": "133.1122222",
    "address": "愛媛県久万高原町",
    "type":"滝"

  },
  {
    "id": "81",
    "name": "龍王の滝",
    "lat": "33.7661111",
    "lng": "133.7611111",
    "address": "高知県大豊町",
    "type":"滝"

  },
  {
    "id": "82",
    "name": "轟の滝",
    "lat": "33.7122222",
    "lng": "133.835",
    "address": "高知県香美市",
    "type":"滝"

  },
  {
    "id": "83",
    "name": "大樽の滝",
    "lat": "33.5172222",
    "lng": "133.2438888",
    "address": "高知県越知町",
    "type":"滝"

  },
  {
    "id": "84",
    "name": "観音の滝",
    "lat": "33.435",
    "lng": "130.13",
    "address": "佐賀県唐津市",
    "type":"滝"

  },
  {
    "id": "85",
    "name": "見帰の滝",
    "lat": "33.3683333",
    "lng": "130.04",
    "address": "佐賀県唐津市",
    "type":"滝"

  },
  {
    "id": "86",
    "name": "四十三万滝",
    "lat": "33.0008333",
    "lng": "130.9502777",
    "address": "熊本県菊池市",
    "type":"滝"

  },
  {
    "id": "87",
    "name": "栴壇轟の滝",
    "lat": "32.5216666",
    "lng": "130.8886111",
    "address": "熊本県八代市",
    "type":"滝"

  },
  {
    "id": "88",
    "name": "数鹿流ヶ滝",
    "lat": "32.8883333",
    "lng": "130.9891666",
    "address": "熊本県南阿蘇村",
    "type":"滝"

  },
  {
    "id": "89",
    "name": "鹿目の滝",
    "lat": "32.1938888",
    "lng": "130.6944444",
    "address": "熊本県人吉市",
    "type":"滝"

  },
  {
    "id": "90",
    "name": "東椎屋の滝",
    "lat": "33.3594444",
    "lng": "131.3838888",
    "address": "大分県宇佐市",
    "type":"滝"

  },
  {
    "id": "91",
    "name": "原尻の滝",
    "lat": "32.9638888",
    "lng": "131.4511111",
    "address": "大分県豊後大野市",
    "type":"滝"

  },
  {
    "id": "92",
    "name": "震動の滝",
    "lat": "33.1688888",
    "lng": "131.2255555",
    "address": "大分県九重町",
    "type":"滝"

  },
  {
    "id": "93",
    "name": "西椎屋の滝",
    "lat": "33.3555555",
    "lng": "131.2505555",
    "address": "大分県玖珠町",
    "type":"滝"

  },
  {
    "id": "94",
    "name": "関之尾滝",
    "lat": "31.7613888",
    "lng": "130.9869444",
    "address": "宮崎県都城市",
    "type":"滝"

  },
  {
    "id": "95",
    "name": "矢研の滝",
    "lat": "32.2930555",
    "lng": "131.4702777",
    "address": "宮崎県都農町",
    "type":"滝"

  },
  {
    "id": "96",
    "name": "行縢の滝",
    "lat": "32.6288888",
    "lng": "131.5788888",
    "address": "宮崎県延岡市",
    "type":"滝"

  },
  {
    "id": "97",
    "name": "真名井の滝",
    "lat": "32.7030555",
    "lng": "131.2991666",
    "address": "宮崎県高千穂町",
    "type":"滝"

  },
  {
    "id": "98",
    "name": "龍門滝",
    "lat": "31.7525",
    "lng": "130.6686111",
    "address": "鹿児島県加治木町",
    "type":"滝"

  },
  {
    "id": "99",
    "name": "大川の滝",
    "lat": "30.2997222",
    "lng": "130.4141666",
    "address": "鹿児島県屋久島町",
    "type":"滝"

  },
  {
    "id": "100",
    "name": "マリュドウの滝",
    "lat": "24.3572222",
    "lng": "123.8033333",
    "address": "沖縄県竹富町",
    "type":"滝"

  }
]
