[
  {
    "id": "1",
    "name": "石北峠",
    "lat": "43.6544444",
    "lng": "143.1638888",
    "address": "北海道北見市、上川町",
    "type":"峠"
  },
  {
    "id": "2",
    "name": "美幌峠",
    "lat": "43.6494444",
    "lng": "144.2486111",
    "address": "北海道美幌町、弟子屈町",
    "type":"峠"
  },
  {
    "id": "3",
    "name": "狩勝峠",
    "lat": "43.1358333",
    "lng": "142.7647222",
    "address": "北海道南富良野町、新得町",
    "type":"峠"
  },
  {
    "id": "4",
    "name": "発荷峠",
    "lat": "40.4061111",
    "lng": "140.865",
    "address": "秋田県鹿角市、小坂町",
    "type":"峠"
  },
  {
    "id": "5",
    "name": "矢立峠",
    "lat": "40.4211111",
    "lng": "140.6269444",
    "address": "青森県平川市、秋田県大館市",
    "type":"峠"
  },
  {
    "id": "6",
    "name": "八幡平",
    "lat": "39.9497222",
    "lng": "140.8563888",
    "address": "秋田県鹿角市、仙北市、岩手県八幡平市",
    "type":"峠"
  },
  {
    "id": "7",
    "name": "国見峠",
    "lat": "39.7197222",
    "lng": "140.7883333",
    "address": "秋田県仙北市、岩手県雫石町",
    "type":"峠"
  },
  {
    "id": "8",
    "name": "笛吹峠",
    "lat": "39.34",
    "lng": "141.6597222",
    "address": "岩手県遠野市、釜石市",
    "type":"峠"
  },
  {
    "id": "9",
    "name": "五輪峠",
    "lat": "39.2602777",
    "lng": "141.3572222",
    "address": "岩手県奥州市、遠野市",
    "type":"峠"
  },
  {
    "id": "10",
    "name": "仙人峠",
    "lat": "39.2763888",
    "lng": "141.6969444",
    "address": "岩手県遠野市、釜石市",
    "type":"峠"
  },
  {
    "id": "11",
    "name": "花立峠",
    "lat": "38.7905555",
    "lng": "140.6008333",
    "address": "山形県最上町、宮城県大崎市",
    "type":"峠"
  },
  {
    "id": "12",
    "name": "山刀伐峠",
    "lat": "38.6905555",
    "lng": "140.5286111",
    "address": "山形県尾花沢市、最上町",
    "type":"峠"
  },
  {
    "id": "13",
    "name": "板谷峠",
    "lat": "37.8094444",
    "lng": "140.2508333",
    "address": "山形県米沢市、福島県福島市",
    "type":"峠"
  },
  {
    "id": "14",
    "name": "笹谷峠",
    "lat": "38.2280555",
    "lng": "140.4697222",
    "address": "山形県山形市、宮城県川崎町",
    "type":"峠"
  },
  {
    "id": "15",
    "name": "苅田峠",
    "lat": "38.1225",
    "lng": "140.4502777",
    "address": "宮城県蔵王町、七ヶ宿町、山形県上山市",
    "type":"峠"
  },
  {
    "id": "16",
    "name": "金山峠",
    "lat": "38.0569444",
    "lng": "140.2983333",
    "address": "山形県上山市、宮城県七ヶ宿町",
    "type":"峠"
  },
  {
    "id": "17",
    "name": "大内峠",
    "lat": "37.3572222",
    "lng": "139.88",
    "address": "福島県会津若松市、会津美里町、下郷町",
    "type":"峠"
  },
  {
    "id": "18",
    "name": "六十里越",
    "lat": "37.3044444",
    "lng": "139.2172222",
    "address": "福島県只見町、新潟県魚沼市",
    "type":"峠"
  },
  {
    "id": "19",
    "name": "金精峠",
    "lat": "36.8188888",
    "lng": "139.3952777",
    "address": "栃木県日光市、群馬県片品村",
    "type":"峠"
  },
  {
    "id": "20",
    "name": "細尾峠",
    "lat": "36.7105555",
    "lng": "139.5138888",
    "address": "栃木県日光市",
    "type":"峠"
  },
  {
    "id": "21",
    "name": "三国峠",
    "lat": "36.7661111",
    "lng": "138.8222222",
    "address": "群馬県みなかみ町、新潟県湯沢町",
    "type":"峠"
  },
  {
    "id": "22",
    "name": "暮坂峠",
    "lat": "36.6027777",
    "lng": "138.6844444",
    "address": "群馬県中之条町",
    "type":"峠"
  },
  {
    "id": "23",
    "name": "十石峠",
    "lat": "36.1063888",
    "lng": "138.6475",
    "address": "群馬県上野村、長野県佐久穂町",
    "type":"峠"
  },
  {
    "id": "24",
    "name": "十文字峠",
    "lat": "35.9427777",
    "lng": "138.7347222",
    "address": "埼玉県秩父市、長野県川上村",
    "type":"峠"
  },
  {
    "id": "25",
    "name": "雁坂峠",
    "lat": "35.8927777",
    "lng": "138.7897222",
    "address": "埼玉県秩父市、山梨県山梨市",
    "type":"峠"
  },
  {
    "id": "26",
    "name": "妻坂峠",
    "lat": "35.9333333",
    "lng": "139.1213888",
    "address": "埼玉県横瀬町",
    "type":"峠"
  },
  {
    "id": "27",
    "name": "境ノ明神峠",
    "lat": "36.7730555",
    "lng": "140.2547222",
    "address": "茨城県大子町、栃木県那珂川町",
    "type":"峠"
  },
  {
    "id": "28",
    "name": "横根峠",
    "lat": "35.1408333",
    "lng": "139.9119444",
    "address": "千葉県鴨川市、富津市、鋸南町",
    "type":"峠"
  },
  {
    "id": "29",
    "name": "小仏峠",
    "lat": "35.6358333",
    "lng": "139.2163888",
    "address": "東京都八王子市、神奈川県相模原市",
    "type":"峠"
  },
  {
    "id": "30",
    "name": "御殿峠",
    "lat": "35.6216666",
    "lng": "139.3408333",
    "address": "東京都八王子市、神奈川県相模原市",
    "type":"峠"
  },
  {
    "id": "31",
    "name": "足柄峠",
    "lat": "35.3186111",
    "lng": "139.0122222",
    "address": "神奈川県南足柄市、静岡県小山町",
    "type":"峠"
  },
  {
    "id": "32",
    "name": "長尾峠",
    "lat": "35.2586111",
    "lng": "138.9747222",
    "address": "神奈川県箱根町、静岡県御殿場市",
    "type":"峠"
  },
  {
    "id": "33",
    "name": "大菩薩峠",
    "lat": "35.7358333",
    "lng": "138.8533333",
    "address": "山梨県甲州市、小菅村",
    "type":"峠"
  },
  {
    "id": "34",
    "name": "御坂峠",
    "lat": "35.5563888",
    "lng": "138.7636111",
    "address": "山梨県笛吹市、富士河口湖町",
    "type":"峠"
  },
  {
    "id": "35",
    "name": "鳥井峠",
    "lat": "37.6611111",
    "lng": "139.5805555",
    "address": "新潟県阿賀町、福島県西会津町",
    "type":"峠"
  },
  {
    "id": "36",
    "name": "倶利伽羅峠",
    "lat": "36.6616666",
    "lng": "136.8161111",
    "address": "富山県小矢部市、石川県津幡町",
    "type":"峠"
  },
  {
    "id": "37",
    "name": "朴峠",
    "lat": "36.4494444",
    "lng": "136.9152777",
    "address": "富山県南砺市",
    "type":"峠"
  },
  {
    "id": "38",
    "name": "谷峠",
    "lat": "36.1333333",
    "lng": "136.5863888",
    "address": "石川県白山市、福井県勝山市",
    "type":"峠"
  },
  {
    "id": "39",
    "name": "木の芽峠",
    "lat": "35.7169444",
    "lng": "136.1402777",
    "address": "福井県敦賀市、南越前町",
    "type":"峠"
  },
  {
    "id": "40",
    "name": "野麦峠",
    "lat": "36.0522222",
    "lng": "137.6052777",
    "address": "長野県松本市、岐阜県高山市",
    "type":"峠"
  },
  {
    "id": "41",
    "name": "大門峠",
    "lat": "36.1102777",
    "lng": "138.2344444",
    "address": "長野県茅野市、長和町",
    "type":"峠"
  },
  {
    "id": "42",
    "name": "関田峠",
    "lat": "36.9933333",
    "lng": "138.3933333",
    "address": "長野県飯山市、新潟県上越市",
    "type":"峠"
  },
  {
    "id": "43",
    "name": "針ノ木峠",
    "lat": "36.5369444",
    "lng": "137.6941666",
    "address": "長野県大町市、富山県立山町",
    "type":"峠"
  },
  {
    "id": "44",
    "name": "修那羅峠",
    "lat": "36.4044444",
    "lng": "138.1011111",
    "address": "長野県筑北村、青木村",
    "type":"峠"
  },
  {
    "id": "45",
    "name": "徳本峠",
    "lat": "36.2280555",
    "lng": "137.6783333",
    "address": "長野県松本市",
    "type":"峠"
  },
  {
    "id": "46",
    "name": "和田峠",
    "lat": "36.145",
    "lng": "138.1438888",
    "address": "長野県長和町、下諏訪町",
    "type":"峠"
  },
  {
    "id": "47",
    "name": "碓氷峠",
    "lat": "36.3441666",
    "lng": "138.6505555",
    "address": "長野県軽井沢町、群馬県安中市",
    "type":"峠"
  },
  {
    "id": "48",
    "name": "杖突峠",
    "lat": "35.9713888",
    "lng": "138.1244444",
    "address": "長野県茅野市、伊那市",
    "type":"峠"
  },
  {
    "id": "49",
    "name": "権兵衛峠",
    "lat": "35.8722222",
    "lng": "137.8569444",
    "address": "長野県塩尻市、南箕輪村",
    "type":"峠"
  },
  {
    "id": "50",
    "name": "鳥居峠",
    "lat": "35.9516666",
    "lng": "137.7963888",
    "address": "長野県塩尻市、木祖村",
    "type":"峠"
  },
  {
    "id": "51",
    "name": "馬籠峠",
    "lat": "35.5386111",
    "lng": "137.5844444",
    "address": "長野県南木曽町、岐阜県中津川市",
    "type":"峠"
  },
  {
    "id": "52",
    "name": "青崩峠",
    "lat": "35.2538888",
    "lng": "137.9111111",
    "address": "長野県飯田市、静岡県浜松市",
    "type":"峠"
  },
  {
    "id": "53",
    "name": "天城峠",
    "lat": "34.83",
    "lng": "138.9330555",
    "address": "静岡県伊豆市、河津町",
    "type":"峠"
  },
  {
    "id": "54",
    "name": "宇津ノ谷峠",
    "lat": "34.9333333",
    "lng": "138.3030555",
    "address": "静岡県静岡市、藤枝市",
    "type":"峠"
  },
  {
    "id": "55",
    "name": "本坂峠",
    "lat": "34.7988888",
    "lng": "137.4930555",
    "address": "愛知県豊橋市、静岡県浜松市",
    "type":"峠"
  },
  {
    "id": "56",
    "name": "伊勢神峠",
    "lat": "35.1725",
    "lng": "137.4297222",
    "address": "愛知県豊田市",
    "type":"峠"
  },
  {
    "id": "57",
    "name": "鈴鹿峠",
    "lat": "34.8941666",
    "lng": "136.3377777",
    "address": "三重県亀山市、滋賀県甲賀市",
    "type":"峠"
  },
  {
    "id": "58",
    "name": "長野峠",
    "lat": "34.7616666",
    "lng": "136.3269444",
    "address": "三重県津市、伊賀市",
    "type":"峠"
  },
  {
    "id": "59",
    "name": "摺針峠（磨針峠）",
    "lat": "35.2936111",
    "lng": "136.2913888",
    "address": "滋賀県彦根市",
    "type":"峠"
  },
  {
    "id": "60",
    "name": "花折峠",
    "lat": "35.1872222",
    "lng": "135.86",
    "address": "滋賀県大津市",
    "type":"峠"
  },
  {
    "id": "61",
    "name": "堀越峠",
    "lat": "35.3697222",
    "lng": "135.5913888",
    "address": "京都府南丹市、福井県おおい町",
    "type":"峠"
  },
  {
    "id": "62",
    "name": "京見峠",
    "lat": "35.0725",
    "lng": "135.7180555",
    "address": "京都府京都市",
    "type":"峠"
  },
  {
    "id": "63",
    "name": "箕峠",
    "lat": "34.1094444",
    "lng": "135.5597222",
    "address": "和歌山県かつらぎ町",
    "type":"峠"
  },
  {
    "id": "64",
    "name": "札立峠",
    "lat": "34.1161111",
    "lng": "135.3463888",
    "address": "和歌山県有田川町、紀美野町",
    "type":"峠"
  },
  {
    "id": "65",
    "name": "暗峠",
    "lat": "34.6655555",
    "lng": "135.6713888",
    "address": "奈良県生駒市、大阪府東大阪市",
    "type":"峠"
  },
  {
    "id": "66",
    "name": "芋ヶ峠",
    "lat": "34.4288888",
    "lng": "135.8466666",
    "address": "奈良県明日香村、高取町、吉野町",
    "type":"峠"
  },
  {
    "id": "67",
    "name": "伯母子峠",
    "lat": "34.0797222",
    "lng": "135.6563888",
    "address": "奈良県野迫川村、十津川村",
    "type":"峠"
  },
  {
    "id": "68",
    "name": "洞ヶ峠",
    "lat": "34.8511111",
    "lng": "135.7038888",
    "address": "大阪府枚方市、京都府八幡市",
    "type":"峠"
  },
  {
    "id": "69",
    "name": "竹ノ内峠",
    "lat": "34.5155555",
    "lng": "135.6769444",
    "address": "大阪府太子町、奈良県葛城市",
    "type":"峠"
  },
  {
    "id": "70",
    "name": "和泉葛城越",
    "lat": "34.3483333",
    "lng": "135.435",
    "address": "大阪府岸和田市、和歌山県紀の川市",
    "type":"峠"
  },
  {
    "id": "71",
    "name": "船坂峠",
    "lat": "34.82",
    "lng": "134.2922222",
    "address": "兵庫県赤穂市、上郡町、岡山県備前市",
    "type":"峠"
  },
  {
    "id": "72",
    "name": "鍵掛峠",
    "lat": "35.3461111",
    "lng": "133.5494444",
    "address": "鳥取県伯耆町、江府町",
    "type":"峠"
  },
  {
    "id": "73",
    "name": "四十曲峠",
    "lat": "35.1894444",
    "lng": "133.5269444",
    "address": "鳥取県日野町、岡山県新庄村",
    "type":"峠"
  },
  {
    "id": "74",
    "name": "赤名峠",
    "lat": "34.9588888",
    "lng": "132.735",
    "address": "島根県飯南町、広島県三次市",
    "type":"峠"
  },
  {
    "id": "75",
    "name": "乙女峠",
    "lat": "34.4730555",
    "lng": "131.7705555",
    "address": "島根県津和野町",
    "type":"峠"
  },
  {
    "id": "76",
    "name": "人形峠",
    "lat": "35.3136111",
    "lng": "133.9305555",
    "address": "岡山県鏡野町、鳥取県三朝町",
    "type":"峠"
  },
  {
    "id": "77",
    "name": "物見峠",
    "lat": "35.2225",
    "lng": "134.1613888",
    "address": "岡山県津山市、鳥取県智頭町",
    "type":"峠"
  },
  {
    "id": "78",
    "name": "上根峠",
    "lat": "34.5783333",
    "lng": "132.5741666",
    "address": "広島県安芸高田市",
    "type":"峠"
  },
  {
    "id": "79",
    "name": "欽明路峠",
    "lat": "34.1116666",
    "lng": "132.1158333",
    "address": "山口県岩国市",
    "type":"峠"
  },
  {
    "id": "80",
    "name": "棧敷峠",
    "lat": "33.9747222",
    "lng": "133.9488888",
    "address": "徳島県東みよし町",
    "type":"峠"
  },
  {
    "id": "81",
    "name": "三坂峠",
    "lat": "33.7077777",
    "lng": "132.8605555",
    "address": "愛媛県松山市、久万高原町",
    "type":"峠"
  },
  {
    "id": "82",
    "name": "地芳峠",
    "lat": "33.4719444",
    "lng": "132.9397222",
    "address": "高知県檮原町、愛媛県久万高原町",
    "type":"峠"
  },
  {
    "id": "83",
    "name": "相栗峠",
    "lat": "34.1175",
    "lng": "134.0752777",
    "address": "香川県高松市、徳島県美馬市",
    "type":"峠"
  },
  {
    "id": "84",
    "name": "八木山峠",
    "lat": "33.6408333",
    "lng": "130.6227777",
    "address": "福岡県飯塚市、篠栗町",
    "type":"峠"
  },
  {
    "id": "85",
    "name": "冷水峠",
    "lat": "33.5102777",
    "lng": "130.6194444",
    "address": "福岡県飯塚市、筑紫野市",
    "type":"峠"
  },
  {
    "id": "86",
    "name": "仲哀峠",
    "lat": "33.6808333",
    "lng": "130.8830555",
    "address": "福岡県みやこ町、香春町",
    "type":"峠"
  },
  {
    "id": "87",
    "name": "三瀬峠",
    "lat": "33.4744444",
    "lng": "130.2816666",
    "address": "佐賀県佐賀市、福岡県福岡市",
    "type":"峠"
  },
  {
    "id": "88",
    "name": "仁田峠",
    "lat": "32.7508333",
    "lng": "130.2833333",
    "address": "長崎県雲仙市、南島原市",
    "type":"峠"
  },
  {
    "id": "89",
    "name": "日見峠",
    "lat": "32.7511111",
    "lng": "129.9236111",
    "address": "長崎県長崎市",
    "type":"峠"
  },
  {
    "id": "90",
    "name": "高森峠",
    "lat": "32.8083333",
    "lng": "131.1419444",
    "address": "熊本県高森町、山都町",
    "type":"峠"
  },
  {
    "id": "91",
    "name": "日ノ尾峠",
    "lat": "32.8855555",
    "lng": "131.1313888",
    "address": "熊本県阿蘇市、高森町",
    "type":"峠"
  },
  {
    "id": "92",
    "name": "湯山峠",
    "lat": "32.345",
    "lng": "131.0888888",
    "address": "熊本県水上村、宮崎県椎葉村",
    "type":"峠"
  },
  {
    "id": "93",
    "name": "岳滅鬼峠",
    "lat": "33.4561111",
    "lng": "130.92",
    "address": "大分県日田市、福岡県添田町",
    "type":"峠"
  },
  {
    "id": "94",
    "name": "鉾立峠",
    "lat": "33.0888888",
    "lng": "131.2608333",
    "address": "大分県九重町",
    "type":"峠"
  },
  {
    "id": "95",
    "name": "三国峠",
    "lat": "32.91",
    "lng": "131.6022222",
    "address": "大分県豊後大野市、佐伯市",
    "type":"峠"
  },
  {
    "id": "96",
    "name": "国見峠",
    "lat": "32.5641666",
    "lng": "131.1483333",
    "address": "宮崎県五ヶ瀬町、椎葉村",
    "type":"峠"
  },
  {
    "id": "97",
    "name": "中山峠",
    "lat": "32.4338888",
    "lng": "131.2172222",
    "address": "宮崎県椎葉村",
    "type":"峠"
  },
  {
    "id": "98",
    "name": "耳取峠",
    "lat": "31.2647222",
    "lng": "130.2455555",
    "address": "鹿児島県南さつま市",
    "type":"峠"
  },
  {
    "id": "99",
    "name": "本茶峠",
    "lat": "28.3938888",
    "lng": "129.5525",
    "address": "鹿児島県奄美市、龍郷町",
    "type":"峠"
  },
  {
    "id": "100",
    "name": "多幸山フェーレー岩",
    "lat": "26.4327777",
    "lng": "127.7730555",
    "address": "沖縄県読谷村",
    "type":"峠"
  }
]
