[
  {
    "id": "1",
    "name": "函館山",
    "lat": "41.7591666",
    "lng": "140.7044444",
    "address": "北海道函館市",
    "type":"夜景"
  },
  {
    "id": "2",
    "name": "藻岩山",
    "lat": "43.0222222",
    "lng": "141.3222222",
    "address": "北海道札幌市",
    "type":"夜景"
  },
  {
    "id": "3",
    "name": "天狗山",
    "lat": "43.1716666",
    "lng": "140.9722222",
    "address": "北海道小樽市",
    "type":"夜景"
  },
  {
    "id": "4",
    "name": "JRタワー展望室T38",
    "lat": "43.0680555",
    "lng": "141.3525",
    "address": "北海道札幌市",
    "type":"夜景"
  },
  {
    "id": "5",
    "name": "釜臥山",
    "lat": "41.2786111",
    "lng": "141.1194444",
    "address": "青森県むつ市",
    "type":"夜景"
  },
  {
    "id": "6",
    "name": "ホテルヴィラシティー雲谷",
    "lat": "40.7369444",
    "lng": "140.7875",
    "address": "青森県青森市",
    "type":"夜景"
  },
  {
    "id": "7",
    "name": "岩山公園",
    "lat": "39.6994444",
    "lng": "141.1830555",
    "address": "岩手県盛岡市",
    "type":"夜景"
  },
  {
    "id": "8",
    "name": "住友生命仙台中央ビル(SS30)",
    "lat": "38.2561111",
    "lng": "140.8780555",
    "address": "宮城県仙台市",
    "type":"夜景"
  },
  {
    "id": "9",
    "name": "セリオン",
    "lat": "39.7525",
    "lng": "140.0611111",
    "address": "秋田県秋田市",
    "type":"夜景"
  },
  {
    "id": "10",
    "name": "舞鶴公園",
    "lat": "38.3555555",
    "lng": "140.3761111",
    "address": "山形県天童市",
    "type":"夜景"
  },
  {
    "id": "11",
    "name": "眺海の森",
    "lat": "38.8591666",
    "lng": "139.9794444",
    "address": "山形県酒田市",
    "type":"夜景"
  },
  {
    "id": "12",
    "name": "信夫山",
    "lat": "37.7691666",
    "lng": "140.4658333",
    "address": "福島県福島市",
    "type":"夜景"
  },
  {
    "id": "13",
    "name": "筑波山･表筑波スカイライン",
    "lat": "36.2261111",
    "lng": "140.1011111",
    "address": "茨城県つくば市･石岡市",
    "type":"夜景"
  },
  {
    "id": "14",
    "name": "太平山",
    "lat": "36.3647222",
    "lng": "139.6902777",
    "address": "栃木県栃木市",
    "type":"夜景"
  },
  {
    "id": "15",
    "name": "織姫公園",
    "lat": "36.3411111",
    "lng": "139.4458333",
    "address": "栃木県足利市",
    "type":"夜景"
  },
  {
    "id": "16",
    "name": "群馬県庁展望ホール",
    "lat": "36.3911111",
    "lng": "139.0608333",
    "address": "群馬県前橋市",
    "type":"夜景"
  },
  {
    "id": "17",
    "name": "大パノラマ夜景展望台",
    "lat": "36.5127777",
    "lng": "139.1836111",
    "address": "群馬県前橋市",
    "type":"夜景"
  },
  {
    "id": "18",
    "name": "埼玉県美の山公園",
    "lat": "36.0552777",
    "lng": "139.1147222",
    "address": "埼玉県秩父市",
    "type":"夜景"
  },
  {
    "id": "19",
    "name": "きみさらずタワー",
    "lat": "35.3797222",
    "lng": "139.9377777",
    "address": "千葉県木更津市",
    "type":"夜景"
  },
  {
    "id": "20",
    "name": "飯岡刑部岬",
    "lat": "35.6933333",
    "lng": "140.7377777",
    "address": "千葉県旭市",
    "type":"夜景"
  },
  {
    "id": "21",
    "name": "東京タワー",
    "lat": "35.6586111",
    "lng": "139.7452777",
    "address": "東京都港区",
    "type":"夜景"
  },
  {
    "id": "22",
    "name": "六本木ヒルズ大展望台 東京シティビュー",
    "lat": "35.6602777",
    "lng": "139.7291666",
    "address": "東京都港区",
    "type":"夜景"
  },
  {
    "id": "23",
    "name": "都庁",
    "lat": "35.6897222",
    "lng": "139.6916666",
    "address": "東京都新宿区",
    "type":"夜景"
  },
  {
    "id": "24",
    "name": "サンシャイン60",
    "lat": "35.7294444",
    "lng": "139.7177777",
    "address": "東京都豊島区",
    "type":"夜景"
  },
  {
    "id": "25",
    "name": "神奈川県ランドマークタワー スカイガーデン",
    "lat": "35.4544444",
    "lng": "139.6313888",
    "address": "神奈川県横浜市",
    "type":"夜景"
  },
  {
    "id": "26",
    "name": "横浜港大さん橋国際客船ターミナル",
    "lat": "35.4508333",
    "lng": "139.6469444",
    "address": "神奈川県横浜市",
    "type":"夜景"
  },
  {
    "id": "27",
    "name": "湘南平",
    "lat": "35.3197222",
    "lng": "139.3083333",
    "address": "神奈川県平塚市",
    "type":"夜景"
  },
  {
    "id": "28",
    "name": "菜の花台",
    "lat": "35.4105555",
    "lng": "139.2094444",
    "address": "神奈川県秦野市",
    "type":"夜景"
  },
  {
    "id": "29",
    "name": "笛吹川フルーツ公園",
    "lat": "35.7033333",
    "lng": "138.6661111",
    "address": "山梨県山梨市",
    "type":"夜景"
  },
  {
    "id": "30",
    "name": "新倉浅間神社",
    "lat": "35.5011111",
    "lng": "138.8011111",
    "address": "山梨県富士吉田市",
    "type":"夜景"
  },
  {
    "id": "31",
    "name": "朱鷺メッセ展望室",
    "lat": "37.9258333",
    "lng": "139.0597222",
    "address": "新潟県新潟市",
    "type":"夜景"
  },
  {
    "id": "32",
    "name": "弥彦山",
    "lat": "37.7044444",
    "lng": "138.8033333",
    "address": "新潟県弥彦村",
    "type":"夜景"
  },
  {
    "id": "33",
    "name": "富山市役所",
    "lat": "36.6958333",
    "lng": "137.2136111",
    "address": "富山県富山市",
    "type":"夜景"
  },
  {
    "id": "34",
    "name": "二上山",
    "lat": "36.79",
    "lng": "137.0152777",
    "address": "富山県高岡市",
    "type":"夜景"
  },
  {
    "id": "35",
    "name": "卯辰山",
    "lat": "36.5708333",
    "lng": "136.6775",
    "address": "石川県金沢市",
    "type":"夜景"
  },
  {
    "id": "36",
    "name": "石川県庁",
    "lat": "36.595",
    "lng": "136.625",
    "address": "石川県金沢市",
    "type":"夜景"
  },
  {
    "id": "37",
    "name": "村国山",
    "lat": "35.8997222",
    "lng": "136.1813888",
    "address": "福井県越前市",
    "type":"夜景"
  },
  {
    "id": "38",
    "name": "姨捨SA",
    "lat": "36.4966666",
    "lng": "138.0955555",
    "address": "長野県千曲市",
    "type":"夜景"
  },
  {
    "id": "39",
    "name": "城山公園",
    "lat": "36.2463888",
    "lng": "137.9544444",
    "address": "長野県松本市",
    "type":"夜景"
  },
  {
    "id": "40",
    "name": "立石公園",
    "lat": "36.0530555",
    "lng": "138.1227777",
    "address": "長野県諏訪市",
    "type":"夜景"
  },
  {
    "id": "41",
    "name": "金華山",
    "lat": "35.4333333",
    "lng": "136.7813888",
    "address": "岐阜県岐阜市",
    "type":"夜景"
  },
  {
    "id": "42",
    "name": "池田山",
    "lat": "35.4394444",
    "lng": "136.5269444",
    "address": "北海道池田町",
    "type":"夜景"
  },
  {
    "id": "43",
    "name": "伊豆スカイライン",
    "lat": "35.1027777",
    "lng": "139.0380555",
    "address": "静岡県伊豆エリア",
    "type":"夜景"
  },
  {
    "id": "44",
    "name": "熱海城",
    "lat": "35.0866666",
    "lng": "139.0788888",
    "address": "静岡県熱海市",
    "type":"夜景"
  },
  {
    "id": "45",
    "name": "富士川SA",
    "lat": "35.1594444",
    "lng": "138.6202777",
    "address": "静岡県富士市",
    "type":"夜景"
  },
  {
    "id": "46",
    "name": "東山スカイタワー",
    "lat": "35.1566666",
    "lng": "136.9788888",
    "address": "愛知県名古屋市",
    "type":"夜景"
  },
  {
    "id": "47",
    "name": "蔵王山展望台",
    "lat": "34.6847222",
    "lng": "137.2622222",
    "address": "愛知県田原市",
    "type":"夜景"
  },
  {
    "id": "48",
    "name": "垂坂公園･羽津山緑地",
    "lat": "35.0005555",
    "lng": "136.6208333",
    "address": "三重県四日市市",
    "type":"夜景"
  },
  {
    "id": "49",
    "name": "比叡山ドライブウエイ",
    "lat": "35.0513888",
    "lng": "135.8386111",
    "address": "滋賀県大津市",
    "type":"夜景"
  },
  {
    "id": "50",
    "name": "将軍塚(東山山頂公園)",
    "lat": "35.0011111",
    "lng": "135.7875",
    "address": "京都府京都市",
    "type":"夜景"
  },
  {
    "id": "51",
    "name": "比叡山ドライブウエイ",
    "lat": "35.0647222",
    "lng": "135.8288888",
    "address": "京都府京都市",
    "type":"夜景"
  },
  {
    "id": "52",
    "name": "万灯呂山展望台",
    "lat": "34.8133333",
    "lng": "135.8230555",
    "address": "京都府井手町",
    "type":"夜景"
  },
  {
    "id": "53",
    "name": "梅田スカイビル空中庭園",
    "lat": "34.7055555",
    "lng": "135.4905555",
    "address": "大阪府大阪市",
    "type":"夜景"
  },
  {
    "id": "54",
    "name": "WTC",
    "lat": "34.6377777",
    "lng": "135.4144444",
    "address": "大阪府大阪市",
    "type":"夜景"
  },
  {
    "id": "55",
    "name": "信貴生駒スカイライン",
    "lat": "34.6133333",
    "lng": "135.6533333",
    "address": "大阪府東大阪市･八尾市",
    "type":"夜景"
  },
  {
    "id": "56",
    "name": "東大阪市役所",
    "lat": "34.6794444",
    "lng": "135.6008333",
    "address": "大阪府東大阪市",
    "type":"夜景"
  },
  {
    "id": "57",
    "name": "五月山",
    "lat": "34.8316666",
    "lng": "135.4272222",
    "address": "大阪府池田市",
    "type":"夜景"
  },
  {
    "id": "58",
    "name": "泉大津PA",
    "lat": "34.5080555",
    "lng": "135.3958333",
    "address": "大阪府泉大津市",
    "type":"夜景"
  },
  {
    "id": "59",
    "name": "摩耶山",
    "lat": "34.7338888",
    "lng": "135.2055555",
    "address": "兵庫県神戸市",
    "type":"夜景"
  },
  {
    "id": "60",
    "name": "六甲ガーデンテラス",
    "lat": "34.7644444",
    "lng": "135.2463888",
    "address": "兵庫県神戸市",
    "type":"夜景"
  },
  {
    "id": "61",
    "name": "ビーナスブリッジ",
    "lat": "34.6980555",
    "lng": "135.1797222",
    "address": "兵庫県神戸市",
    "type":"夜景"
  },
  {
    "id": "62",
    "name": "芦有ドライブウエイ",
    "lat": "34.7808333",
    "lng": "135.2883333",
    "address": "兵庫県芦屋市",
    "type":"夜景"
  },
  {
    "id": "63",
    "name": "淡路SA",
    "lat": "34.5825",
    "lng": "135.0183333",
    "address": "兵庫県淡路市",
    "type":"夜景"
  },
  {
    "id": "64",
    "name": "若草山",
    "lat": "34.6908333",
    "lng": "135.8555555",
    "address": "奈良県奈良市",
    "type":"夜景"
  },
  {
    "id": "65",
    "name": "信貴生駒スカイライン",
    "lat": "34.6711111",
    "lng": "135.6763888",
    "address": "奈良県生駒市･平群町",
    "type":"夜景"
  },
  {
    "id": "66",
    "name": "紀ノ川SA",
    "lat": "34.2747222",
    "lng": "135.2475",
    "address": "和歌山県和歌山市",
    "type":"夜景"
  },
  {
    "id": "67",
    "name": "鷲ヶ峰コスモスパーク",
    "lat": "34.0925",
    "lng": "135.2341666",
    "address": "和歌山県有田川町",
    "type":"夜景"
  },
  {
    "id": "68",
    "name": "鷲羽山スカイライン",
    "lat": "34.5091666",
    "lng": "133.7822222",
    "address": "岡山県倉敷市",
    "type":"夜景"
  },
  {
    "id": "69",
    "name": "遙照山総合公園",
    "lat": "34.5713888",
    "lng": "133.6161111",
    "address": "岡山県浅口市",
    "type":"夜景"
  },
  {
    "id": "70",
    "name": "黄金山",
    "lat": "34.3672222",
    "lng": "132.4905555",
    "address": "広島県広島市",
    "type":"夜景"
  },
  {
    "id": "71",
    "name": "灰ヶ峰",
    "lat": "34.27",
    "lng": "132.5922222",
    "address": "広島県呉市",
    "type":"夜景"
  },
  {
    "id": "72",
    "name": "千光寺展望台",
    "lat": "34.4108333",
    "lng": "133.1961111",
    "address": "広島県尾道市",
    "type":"夜景"
  },
  {
    "id": "73",
    "name": "火の山",
    "lat": "33.9727777",
    "lng": "130.9594444",
    "address": "山口県下関市",
    "type":"夜景"
  },
  {
    "id": "74",
    "name": "竜王山公園",
    "lat": "33.9572222",
    "lng": "131.1675",
    "address": "山口県山陽小野田市",
    "type":"夜景"
  },
  {
    "id": "75",
    "name": "眉山",
    "lat": "34.0680555",
    "lng": "134.5375",
    "address": "徳島県徳島市",
    "type":"夜景"
  },
  {
    "id": "76",
    "name": "屋島 獅子の霊厳",
    "lat": "34.3575",
    "lng": "134.0988888",
    "address": "香川県高松市",
    "type":"夜景"
  },
  {
    "id": "77",
    "name": "天使のすむ丘 サンアンジェリーナ展望台",
    "lat": "34.3197222",
    "lng": "133.8311111",
    "address": "香川県宇多津町",
    "type":"夜景"
  },
  {
    "id": "78",
    "name": "松山総合公園",
    "lat": "33.8444444",
    "lng": "132.7408333",
    "address": "愛媛県松山市",
    "type":"夜景"
  },
  {
    "id": "79",
    "name": "具定展望台",
    "lat": "33.9572222",
    "lng": "133.5252777",
    "address": "愛媛県四国中央市",
    "type":"夜景"
  },
  {
    "id": "80",
    "name": "五台山公園",
    "lat": "33.5466666",
    "lng": "133.5738888",
    "address": "高知県高知市",
    "type":"夜景"
  },
  {
    "id": "81",
    "name": "皿倉山",
    "lat": "33.8458333",
    "lng": "130.7966666",
    "address": "福岡県北九州市",
    "type":"夜景"
  },
  {
    "id": "82",
    "name": "福岡タワー",
    "lat": "33.5933333",
    "lng": "130.3513888",
    "address": "福岡県福岡市",
    "type":"夜景"
  },
  {
    "id": "83",
    "name": "油山 片江展望台",
    "lat": "33.5302777",
    "lng": "130.3666666",
    "address": "福岡県福岡市",
    "type":"夜景"
  },
  {
    "id": "84",
    "name": "米の山展望広場",
    "lat": "33.605",
    "lng": "130.5419444",
    "address": "福岡県篠栗町",
    "type":"夜景"
  },
  {
    "id": "85",
    "name": "稲佐山",
    "lat": "32.7527777",
    "lng": "129.8494444",
    "address": "長崎県長崎市",
    "type":"夜景"
  },
  {
    "id": "86",
    "name": "弓張岳展望台",
    "lat": "33.1791666",
    "lng": "129.7008333",
    "address": "長崎県佐世保市",
    "type":"夜景"
  },
  {
    "id": "87",
    "name": "花岡山",
    "lat": "32.7963888",
    "lng": "130.6855555",
    "address": "熊本県熊本市",
    "type":"夜景"
  },
  {
    "id": "88",
    "name": "金峰山",
    "lat": "32.8097222",
    "lng": "130.6372222",
    "address": "熊本県熊本市",
    "type":"夜景"
  },
  {
    "id": "89",
    "name": "十文字原展望台",
    "lat": "33.33",
    "lng": "131.4597222",
    "address": "大分県別府市",
    "type":"夜景"
  },
  {
    "id": "90",
    "name": "愛宕山公園",
    "lat": "32.5622222",
    "lng": "131.6694444",
    "address": "宮崎県延岡市",
    "type":"夜景"
  },
  {
    "id": "91",
    "name": "金御岳公園",
    "lat": "31.6625",
    "lng": "131.0802777",
    "address": "宮崎県都城市",
    "type":"夜景"
  },
  {
    "id": "92",
    "name": "城山展望台",
    "lat": "31.5958333",
    "lng": "130.5488888",
    "address": "鹿児島県鹿児島市",
    "type":"夜景"
  },
  {
    "id": "93",
    "name": "城山公園",
    "lat": "31.7408333",
    "lng": "130.7822222",
    "address": "鹿児島県霧島市",
    "type":"夜景"
  },
  {
    "id": "94",
    "name": "浦添大公園",
    "lat": "26.2544444",
    "lng": "127.7247222",
    "address": "沖縄県浦添市",
    "type":"夜景"
  }
]
