[

  {
    "id": "1",
    "name": "宗谷本線",
    "lat": "45.3166666",
    "lng": "141.6447222",
    "address": "北海道稚内市",
    "type":"絶景"
  },
  {
    "id": "2",
    "name": "宗谷本線",
    "lat": "44.7441666",
    "lng": "142.0486111",
    "address": "北海道中川町",
    "type":"絶景"
  },
  {
    "id": "3",
    "name": "釧網本線",
    "lat": "43.9583333",
    "lng": "144.3522222",
    "address": "北海道網走市",
    "type":"絶景"
  },
  {
    "id": "4",
    "name": "釧網本線",
    "lat": "43.1002777",
    "lng": "144.4477777",
    "address": "北海道釧路町",
    "type":"絶景"
  },
  {
    "id": "5",
    "name": "根室本線",
    "lat": "43.2183333",
    "lng": "145.4236111",
    "address": "北海道根室市",
    "type":"絶景"
  },
  {
    "id": "6",
    "name": "根室本線",
    "lat": "43.0561111",
    "lng": "144.8411111",
    "address": "北海道厚岸町",
    "type":"絶景"
  },
  {
    "id": "7",
    "name": "根室本線",
    "lat": "43.125",
    "lng": "142.6688888",
    "address": "北海道南富良野町",
    "type":"絶景"
  },
  {
    "id": "8",
    "name": "根室本線",
    "lat": "43.2916666",
    "lng": "142.4",
    "address": "北海道富良野市",
    "type":"絶景"
  },
  {
    "id": "9",
    "name": "富良野線",
    "lat": "43.5911111",
    "lng": "142.4616666",
    "address": "北海道美瑛町",
    "type":"絶景"
  },
  {
    "id": "10",
    "name": "石勝線",
    "lat": "42.9363888",
    "lng": "142.0358333",
    "address": "北海道夕張市",
    "type":"絶景"
  },
  {
    "id": "11",
    "name": "日高本線",
    "lat": "42.4811111",
    "lng": "142.0725",
    "address": "北海道日高町",
    "type":"絶景"
  },
  {
    "id": "12",
    "name": "函館本線",
    "lat": "43.1766666",
    "lng": "141.0638888",
    "address": "北海道小樽市",
    "type":"絶景"
  },
  {
    "id": "13",
    "name": "函館本線",
    "lat": "43.0413888",
    "lng": "140.7147222",
    "address": "北海道仁木町",
    "type":"絶景"
  },
  {
    "id": "14",
    "name": "函館本線",
    "lat": "41.93",
    "lng": "140.635",
    "address": "北海道七飯町",
    "type":"絶景"
  },
  {
    "id": "15",
    "name": "津軽鉄道",
    "lat": "40.9511111",
    "lng": "140.4411111",
    "address": "青森県中泊町",
    "type":"絶景"
  },
  {
    "id": "16",
    "name": "五能線",
    "lat": "40.6086111",
    "lng": "139.8647222",
    "address": "青森県深浦町",
    "type":"絶景"
  },
  {
    "id": "17",
    "name": "秋田内陸縦貫鉄道",
    "lat": "39.9194444",
    "lng": "140.5155555",
    "address": "秋田県北秋田市",
    "type":"絶景"
  },
  {
    "id": "18",
    "name": "花輪線",
    "lat": "39.9691666",
    "lng": "141.0438888",
    "address": "岩手県八幡平市",
    "type":"絶景"
  },
  {
    "id": "19",
    "name": "岩泉線",
    "lat": "39.7238888",
    "lng": "141.6930555",
    "address": "岩手県宮古市",
    "type":"絶景"
  },
  {
    "id": "20",
    "name": "釜石線",
    "lat": "39.2419444",
    "lng": "141.6813888",
    "address": "岩手県住田町",
    "type":"絶景"
  },
  {
    "id": "21",
    "name": "石巻線",
    "lat": "38.4322222",
    "lng": "141.3822222",
    "address": "宮城県石巻市",
    "type":"絶景"
  },
  {
    "id": "22",
    "name": "仙石線",
    "lat": "38.3702777",
    "lng": "141.1425",
    "address": "宮城県東松島市",
    "type":"絶景"
  },
  {
    "id": "23",
    "name": "阿武隈急行",
    "lat": "37.9133333",
    "lng": "140.6855555",
    "address": "宮城県丸森町",
    "type":"絶景"
  },
  {
    "id": "24",
    "name": "東北本線",
    "lat": "37.8788888",
    "lng": "140.5394444",
    "address": "福島県国見町",
    "type":"絶景"
  },
  {
    "id": "25",
    "name": "磐越西線",
    "lat": "37.5575",
    "lng": "139.9933333",
    "address": "福島県磐梯町",
    "type":"絶景"
  },
  {
    "id": "26",
    "name": "磐越西線",
    "lat": "37.5908333",
    "lng": "139.6444444",
    "address": "福島県西会津町",
    "type":"絶景"
  },
  {
    "id": "27",
    "name": "羽越本線",
    "lat": "38.375",
    "lng": "139.4586111",
    "address": "新潟県村上市",
    "type":"絶景"
  },
  {
    "id": "28",
    "name": "只見線",
    "lat": "37.3936111",
    "lng": "139.355",
    "address": "福島県只見町",
    "type":"絶景"
  },
  {
    "id": "29",
    "name": "常磐線",
    "lat": "37.1425",
    "lng": "140.9958333",
    "address": "福島県いわき市",
    "type":"絶景"
  },
  {
    "id": "30",
    "name": "東武伊勢崎線",
    "lat": "35.7119444",
    "lng": "139.7983333",
    "address": "東京都台東区",
    "type":"絶景"
  },
  {
    "id": "31",
    "name": "上越線",
    "lat": "36.8305555",
    "lng": "138.9677777",
    "address": "群馬県みなかみ町",
    "type":"絶景"
  },
  {
    "id": "32",
    "name": "信越本線",
    "lat": "36.3316666",
    "lng": "138.9144444",
    "address": "群馬県安中市",
    "type":"絶景"
  },
  {
    "id": "33",
    "name": "わたらせ渓谷鐵道",
    "lat": "36.4813888",
    "lng": "139.2591666",
    "address": "群馬県桐生市",
    "type":"絶景"
  },
  {
    "id": "34",
    "name": "鶴見線",
    "lat": "35.4975",
    "lng": "139.6955555",
    "address": "神奈川県横浜市",
    "type":"絶景"
  },
  {
    "id": "35",
    "name": "横須賀線",
    "lat": "35.2927777",
    "lng": "139.6375",
    "address": "神奈川県横須賀市",
    "type":"絶景"
  },
  {
    "id": "36",
    "name": "京急本線",
    "lat": "35.3158333",
    "lng": "139.6247222",
    "address": "神奈川県横須賀市",
    "type":"絶景"
  },
  {
    "id": "37",
    "name": "江ノ島電鉄",
    "lat": "35.3136111",
    "lng": "139.5452777",
    "address": "神奈川県鎌倉市",
    "type":"絶景"
  },
  {
    "id": "38",
    "name": "東海道本線",
    "lat": "35.2386111",
    "lng": "139.145",
    "address": "神奈川県小田原市",
    "type":"絶景"
  },
  {
    "id": "39",
    "name": "箱根登山鉄道",
    "lat": "35.2344444",
    "lng": "139.0938888",
    "address": "神奈川県箱根町",
    "type":"絶景"
  },
  {
    "id": "40",
    "name": "伊豆急行",
    "lat": "34.8019444",
    "lng": "139.0611111",
    "address": "静岡県東伊豆町",
    "type":"絶景"
  },
  {
    "id": "41",
    "name": "富士急行",
    "lat": "35.5241666",
    "lng": "138.8455555",
    "address": "山梨県西桂町",
    "type":"絶景"
  },
  {
    "id": "42",
    "name": "中央本線",
    "lat": "35.6727777",
    "lng": "138.7430555",
    "address": "山梨県甲州市",
    "type":"絶景"
  },
  {
    "id": "43",
    "name": "中央本線",
    "lat": "35.7094444",
    "lng": "138.4513888",
    "address": "山梨県韮崎市",
    "type":"絶景"
  },
  {
    "id": "44",
    "name": "ゆりかもめ",
    "lat": "35.6422222",
    "lng": "139.7577777",
    "address": "東京都港区",
    "type":"絶景"
  },
  {
    "id": "45",
    "name": "しなの鉄道",
    "lat": "36.3355555",
    "lng": "138.5586111",
    "address": "長野県軽井沢町",
    "type":"絶景"
  },
  {
    "id": "46",
    "name": "小海線",
    "lat": "35.9191666",
    "lng": "138.4363888",
    "address": "山梨県北杜市",
    "type":"絶景"
  },
  {
    "id": "47",
    "name": "長野電鉄",
    "lat": "36.7494444",
    "lng": "138.4075",
    "address": "長野県山ノ内町",
    "type":"絶景"
  },
  {
    "id": "48",
    "name": "篠ノ井線",
    "lat": "36.4572222",
    "lng": "138.0791666",
    "address": "長野県筑北村",
    "type":"絶景"
  },
  {
    "id": "49",
    "name": "大糸線",
    "lat": "36.5538888",
    "lng": "137.8425",
    "address": "長野県大町市",
    "type":"絶景"
  },
  {
    "id": "50",
    "name": "黒部峡谷鉄道",
    "lat": "36.815",
    "lng": "137.5855555",
    "address": "富山県黒部市",
    "type":"絶景"
  },
  {
    "id": "51",
    "name": "万葉線",
    "lat": "36.7877777",
    "lng": "137.0613888",
    "address": "富山県射水市",
    "type":"絶景"
  },
  {
    "id": "52",
    "name": "氷見線",
    "lat": "36.8052777",
    "lng": "137.0505555",
    "address": "富山県高岡市",
    "type":"絶景"
  },
  {
    "id": "53",
    "name": "えちぜん鉄道 ",
    "lat": "36.0658333",
    "lng": "136.4841666",
    "address": "福井県勝山市",
    "type":"絶景"
  },
  {
    "id": "54",
    "name": "東海道新幹線",
    "lat": "35.1263888",
    "lng": "138.9094444",
    "address": "静岡県三島市",
    "type":"絶景"
  },
  {
    "id": "55",
    "name": "岳南鉄道",
    "lat": "35.1661111",
    "lng": "138.7044444",
    "address": "静岡県富士市",
    "type":"絶景"
  },
  {
    "id": "56",
    "name": "大井川鐵道",
    "lat": "35.1788888",
    "lng": "138.1852777",
    "address": "静岡県川根本町",
    "type":"絶景"
  },
  {
    "id": "57",
    "name": "天竜浜名湖鉄道",
    "lat": "34.8022222",
    "lng": "137.6213888",
    "address": "静岡県浜松市",
    "type":"絶景"
  },
  {
    "id": "58",
    "name": "飯田線",
    "lat": "35.1905555",
    "lng": "137.8183333",
    "address": "静岡県浜松市",
    "type":"絶景"
  },
  {
    "id": "59",
    "name": "飯田線",
    "lat": "35.5955555",
    "lng": "137.9130555",
    "address": "長野県松川町",
    "type":"絶景"
  },
  {
    "id": "60",
    "name": "明知鉄道",
    "lat": "35.4186111",
    "lng": "137.4613888",
    "address": "岐阜県中津川市",
    "type":"絶景"
  },
  {
    "id": "61",
    "name": "高山本線",
    "lat": "35.6625",
    "lng": "137.1641666",
    "address": "岐阜県下呂市",
    "type":"絶景"
  },
  {
    "id": "62",
    "name": "参宮線",
    "lat": "34.4911111",
    "lng": "136.8136111",
    "address": "三重県伊勢市",
    "type":"絶景"
  },
  {
    "id": "63",
    "name": "紀勢本線",
    "lat": "34.2580555",
    "lng": "136.3563888",
    "address": "三重県大紀町",
    "type":"絶景"
  },
  {
    "id": "64",
    "name": "紀勢本線",
    "lat": "33.5183333",
    "lng": "135.8208333",
    "address": "和歌山県串本町",
    "type":"絶景"
  },
  {
    "id": "65",
    "name": "近鉄大阪線",
    "lat": "34.5158333",
    "lng": "135.8688888",
    "address": "奈良県桜井市",
    "type":"絶景"
  },
  {
    "id": "66",
    "name": "南海高野線",
    "lat": "34.2877777",
    "lng": "135.5644444",
    "address": "和歌山県九度山町",
    "type":"絶景"
  },
  {
    "id": "67",
    "name": "近鉄奈良線",
    "lat": "34.6694444",
    "lng": "135.6480555",
    "address": "大阪府東大阪市",
    "type":"絶景"
  },
  {
    "id": "68",
    "name": "嵯峨野観光鉄道",
    "lat": "35.0169444",
    "lng": "135.6708333",
    "address": "京都府京都市",
    "type":"絶景"
  },
  {
    "id": "69",
    "name": "神戸電鉄",
    "lat": "34.6927777",
    "lng": "135.1425",
    "address": "兵庫県神戸市",
    "type":"絶景"
  },
  {
    "id": "70",
    "name": "山陽本線",
    "lat": "34.6422222",
    "lng": "135.1125",
    "address": "兵庫県神戸市",
    "type":"絶景"
  },
  {
    "id": "71",
    "name": "北近畿タンゴ鉄道",
    "lat": "35.5158333",
    "lng": "135.2794444",
    "address": "京都府宮津市",
    "type":"絶景"
  },
  {
    "id": "72",
    "name": "山陰線",
    "lat": "35.6497222",
    "lng": "134.7563888",
    "address": "兵庫県豊岡市",
    "type":"絶景"
  },
  {
    "id": "73",
    "name": "木次線",
    "lat": "35.1022222",
    "lng": "133.1205555",
    "address": "島根県奥出雲町",
    "type":"絶景"
  },
  {
    "id": "74",
    "name": "山陰本線",
    "lat": "35.2847222",
    "lng": "132.6302777",
    "address": "島根県出雲市",
    "type":"絶景"
  },
  {
    "id": "75",
    "name": "山陰本線",
    "lat": "34.4052777",
    "lng": "131.3797222",
    "address": "山口県萩市",
    "type":"絶景"
  },
  {
    "id": "76",
    "name": "山陽本線",
    "lat": "34.0725",
    "lng": "131.7047222",
    "address": "山口県周南市",
    "type":"絶景"
  },
  {
    "id": "77",
    "name": "瀬戸大橋線",
    "lat": "34.4627777",
    "lng": "133.8075",
    "address": "岡山県倉敷市",
    "type":"絶景"
  },
  {
    "id": "78",
    "name": "土讃線",
    "lat": "34.0538888",
    "lng": "133.8238888",
    "address": "徳島県三好市",
    "type":"絶景"
  },
  {
    "id": "79",
    "name": "土讃線",
    "lat": "33.9725",
    "lng": "133.7802777",
    "address": "徳島県三好市",
    "type":"絶景"
  },
  {
    "id": "80",
    "name": "土讃線",
    "lat": "33.6497222",
    "lng": "133.6955555",
    "address": "高知県香美市",
    "type":"絶景"
  },
  {
    "id": "81",
    "name": "ごめん・なはり線",
    "lat": "33.54",
    "lng": "133.7219444",
    "address": "高知県香南市",
    "type":"絶景"
  },
  {
    "id": "82",
    "name": "予土線",
    "lat": "33.1947222",
    "lng": "132.9755555",
    "address": "高知県四万十町",
    "type":"絶景"
  },
  {
    "id": "83",
    "name": "予讃線",
    "lat": "33.3497222",
    "lng": "132.5311111",
    "address": "愛媛県西予市",
    "type":"絶景"
  },
  {
    "id": "84",
    "name": "予讃線",
    "lat": "33.6836111",
    "lng": "132.6327777",
    "address": "愛媛県伊予市",
    "type":"絶景"
  },
  {
    "id": "85",
    "name": "篠栗線",
    "lat": "33.6177777",
    "lng": "130.5719444",
    "address": "福岡県篠栗町",
    "type":"絶景"
  },
  {
    "id": "86",
    "name": "香椎線",
    "lat": "33.6836111",
    "lng": "130.4027777",
    "address": "福岡県福岡市",
    "type":"絶景"
  },
  {
    "id": "87",
    "name": "日田彦山線",
    "lat": "33.7072222",
    "lng": "130.8530555",
    "address": "福岡県香春町",
    "type":"絶景"
  },
  {
    "id": "88",
    "name": "大村線",
    "lat": "33.0397222",
    "lng": "129.9144444",
    "address": "長崎県東彼杵町",
    "type":"絶景"
  },
  {
    "id": "89",
    "name": "松浦鉄道",
    "lat": "33.1636111",
    "lng": "129.7258333",
    "address": "長崎県佐世保市",
    "type":"絶景"
  },
  {
    "id": "90",
    "name": "長崎本線",
    "lat": "33.0708333",
    "lng": "130.1452777",
    "address": "佐賀県鹿島市",
    "type":"絶景"
  },
  {
    "id": "91",
    "name": "島原鉄道",
    "lat": "32.8602777",
    "lng": "130.2255555",
    "address": "長崎県雲仙市",
    "type":"絶景"
  },
  {
    "id": "92",
    "name": "久大本線",
    "lat": "33.2819444",
    "lng": "131.1008333",
    "address": "大分県玖珠町",
    "type":"絶景"
  },
  {
    "id": "93",
    "name": "久大本線",
    "lat": "33.2402777",
    "lng": "131.2516666",
    "address": "大分県九重町",
    "type":"絶景"
  },
  {
    "id": "94",
    "name": "日豊本線",
    "lat": "33.0727777",
    "lng": "131.8636111",
    "address": "大分県津久見市",
    "type":"絶景"
  },
  {
    "id": "95",
    "name": "豊肥本線、南阿蘇鉄道",
    "lat": "32.8775",
    "lng": "130.965",
    "address": "熊本県南阿蘇村",
    "type":"絶景"
  },
  {
    "id": "96",
    "name": "肥薩線",
    "lat": "32.165",
    "lng": "130.7877777",
    "address": "熊本県人吉市",
    "type":"絶景"
  },
  {
    "id": "97",
    "name": "日豊本線",
    "lat": "31.6022222",
    "lng": "130.5641666",
    "address": "鹿児島県鹿児島市",
    "type":"絶景"
  },
  {
    "id": "98",
    "name": "肥薩おれんじ鉄道",
    "lat": "32.4361111",
    "lng": "130.5819444",
    "address": "熊本県八代市",
    "type":"絶景"
  },
  {
    "id": "99",
    "name": "指宿枕崎線",
    "lat": "31.195",
    "lng": "130.5991666",
    "address": "鹿児島県指宿市",
    "type":"絶景"
  },
  {
    "id": "100",
    "name": "ゆいレール",
    "lat": "26.2275",
    "lng": "127.71",
    "address": "沖縄県那覇市",
    "type":"絶景"
  }
]
